Job Number,Job Type,CS/SSC/SSM permit,Permit Expiration Date,BIN,Borough,Community Board,Address,Count Permits,lat,lon
121324129,A1,CS/SSC/SSM permit,4/1/2021,1000003,MANHATTAN,101,10 SOUTH STREET,1,40.7005500793457,-74.01158905029297
140923856,A2,CS/SSC/SSM permit,7/15/2021,1000016,MANHATTAN,101,104 BROAD STREET,1,40.70314025878906,-74.01190948486328
123536147,A2,CS/SSC/SSM permit,1/31/2021,1000027,MANHATTAN,101,1 WHITEHALL STREET,1,40.70381164550781,-74.01275634765625
121333057,NB,CS/SSC/SSM permit,6/12/2021,1000041,MANHATTAN,101,11 STONE STREET,1,40.704200744628906,-74.01223754882812
140604308,A2,CS/SSC/SSM permit,3/1/2021,1000044,MANHATTAN,101,11 BROADWAY,1,40.70528030395508,-74.01426696777344
123836091,A2,CS/SSC/SSM permit,2/16/2021,1000047,MANHATTAN,101,21 WEST STREET,1,40.70637893676758,-74.01553344726562
140753619,A2,CS/SSC/SSM permit,3/21/2021,1000053,MANHATTAN,101,225 RECTOR PLACE,1,40.70949935913086,-74.01595306396484
121160028,A2,CS/SSC/SSM permit,1/28/2021,1000793,MANHATTAN,101,90 WASHINGTON STREET,1,40.70806884765625,-74.01484680175781
121191021,NB,CS/SSC/SSM permit,6/8/2021,1000797,MANHATTAN,101,42 TRINITY PLACE,1,40.707359313964844,-74.01358032226562
121191995,NB,CS/SSC/SSM permit,7/18/2021,1000801,MANHATTAN,101,50 TRINITY PLACE,3,40.707759857177734,-74.01329803466797
123558998,A2,CS/SSC/SSM permit,4/1/2021,1000811,MANHATTAN,101,26 BROADWAY,1,40.70542907714844,-74.01290130615234
123046952,A2,CS/SSC/SSM permit,12/18/2021,1000815,MANHATTAN,101,1 WALL STREET,2,40.70711898803711,-74.01183319091797
122808122,A2,CS/SSC/SSM permit,3/1/2021,1000815,MANHATTAN,101,1 WALL ST,1,40.70711898803711,-74.01183319091797
121190086,A1,CS/SSC/SSM permit,7/7/2021,1000815,MANHATTAN,101,1 WALL STREET,1,40.70711898803711,-74.01183319091797
122808042,A2,CS/SSC/SSM permit,9/30/2021,1000815,MANHATTAN,101,1 WALL ST,1,40.70711898803711,-74.01183319091797
123797329,A2,CS/SSC/SSM permit,4/1/2021,1000817,MANHATTAN,101,60 BROAD STREET,1,40.7053108215332,-74.01200103759766
140945440,A2,CS/SSC/SSM permit,1/15/2021,1000820,MANHATTAN,101,50 BROAD STREET,1,40.70573043823242,-74.0118637084961
123843733,A2,CS/SSC/SSM permit,7/31/2021,1000855,MANHATTAN,101,7 HANOVER SQUARE,1,40.70405960083008,-74.00965881347656
123697464,A2,CS/SSC/SSM permit,7/23/2021,1000855,MANHATTAN,101,7 HANOVER SQUARE,1,40.70405960083008,-74.00965881347656
123765666,A1,CS/SSC/SSM permit,9/17/2021,1000855,MANHATTAN,101,7 HANOVER SQUARE,1,40.70405960083008,-74.00965881347656
140919111,A2,CS/SSC/SSM permit,1/1/2022,1000871,MANHATTAN,101,120 WALL STREET,1,40.70476150512695,-74.0059585571289
123882753,A2,CS/SSC/SSM permit,1/31/2021,1000876,MANHATTAN,101,88 PINE STREET,1,40.70566177368164,-74.00615692138672
121189418,A1,CS/SSC/SSM permit,1/31/2021,1000877,MANHATTAN,101,88 WALL STREET,1,40.705528259277344,-74.00758361816406
123785715,A2,CS/SSC/SSM permit,1/31/2021,1000877,MANHATTAN,101,82 WALL STREET,1,40.705528259277344,-74.00758361816406
140940622,A2,CS/SSC/SSM permit,7/19/2021,1001005,MANHATTAN,101,48 WALL STREET,1,40.706478118896484,-74.00911712646484
140951101,A2,CS/SSC/SSM permit,7/17/2021,1001014,MANHATTAN,101,100 MAIDEN LANE,1,40.70671844482422,-74.00721740722656
140910977,A2,CS/SSC/SSM permit,8/3/2021,1001024,MANHATTAN,101,100 BROADWAY,1,40.707969665527344,-74.01112365722656
140953680,A2,CS/SSC/SSM permit,3/7/2021,1001028,MANHATTAN,101,75 BROADWAY,1,40.70814895629883,-74.01204681396484
123862533,A2,CS/SSC/SSM permit,6/1/2021,1001028,MANHATTAN,101,75 BROADWAY,1,40.70814895629883,-74.01204681396484
121204909,NB,CS/SSC/SSM permit,12/29/2021,1001042,MANHATTAN,101,112 LIBERTY STREET,2,40.709590911865234,-74.01210021972656
123493898,A2,CS/SSC/SSM permit,1/30/2021,1001084,MANHATTAN,101,55 LIBERTY STREET,1,40.708839416503906,-74.0093765258789
140851291,A2,CS/SSC/SSM permit,2/15/2021,1001127,MANHATTAN,101,100 JOHN STREET,1,40.707908630371094,-74.00650024414062
123417427,DM,CS/SSC/SSM permit,6/28/2021,1001129,MANHATTAN,101,104 JOHN STREET,1,40.707679748535156,-74.00618743896484
123590890,DM,CS/SSC/SSM permit,6/28/2021,1001129,MANHATTAN,101,110 JOHN STREET,1,40.707679748535156,-74.00618743896484
123590881,DM,CS/SSC/SSM permit,6/28/2021,1001129,MANHATTAN,101,102 JOHN STREET,1,40.707679748535156,-74.00618743896484
123869634,A2,CS/SSC/SSM permit,11/13/2021,1001228,MANHATTAN,101,140 WEST STREET,1,40.71377944946289,-74.01293182373047
140801979,A2,CS/SSC/SSM permit,3/1/2021,1001280,MANHATTAN,101,150 WILLIAM STREET,1,40.70951843261719,-74.00579833984375
140922492,A2,CS/SSC/SSM permit,1/1/2022,1001389,MANHATTAN,101,375 PEARL STREET,1,40.71091079711914,-74.00116729736328
123158876,DM,CS/SSC/SSM permit,1/30/2021,1001402,MANHATTAN,101,21 PARK PLACE,1,40.713218688964844,-74.00862121582031
123684851,A1,CS/SSC/SSM permit,4/1/2021,1001405,MANHATTAN,101,27 PARK PLACE,1,40.71345901489258,-74.00882720947266
123195363,A2,CS/SSC/SSM permit,3/13/2021,1001410,MANHATTAN,101,50 MURRAY STREET,1,40.71379089355469,-74.00950622558594
123831327,A1,CS/SSC/SSM permit,10/1/2021,1001580,MANHATTAN,101,115 CHAMBERS STREET,1,40.715328216552734,-74.00834655761719
123032404,A1,CS/SSC/SSM permit,1/31/2021,1001582,MANHATTAN,101,121 CHAMBERS STREET,1,40.715511322021484,-74.00846099853516
103588565,A1,CS/SSC/SSM permit,6/1/2021,1001606,MANHATTAN,101,131 DUANE STREET,1,40.71638107299805,-74.0074462890625
121187624,A1,CS/SSC/SSM permit,4/1/2021,1001632,MANHATTAN,101,55 READE STREET,1,40.714698791503906,-74.00624084472656
123690201,A2,CS/SSC/SSM permit,4/1/2021,1001632,MANHATTAN,101,55 READE STREET,1,40.714698791503906,-74.00624084472656
140879850,A2,CS/SSC/SSM permit,6/18/2021,1001635,MANHATTAN,101,277 BROADWAY,1,40.714439392089844,-74.00646209716797
121325841,A1,CS/SSC/SSM permit,9/1/2021,1001639,MANHATTAN,101,66 READE STREET,1,40.715240478515625,-74.00666046142578
121185831,A1,CS/SSC/SSM permit,2/14/2021,1001835,MANHATTAN,101,108 LEONARD STREET,1,40.71636962890625,-74.00338745117188
121188678,NB,CS/SSC/SSM permit,11/24/2021,1001841,MANHATTAN,101,65 FRANKLIN STREET,1,40.71718978881836,-74.00334167480469
123358892,A1,CS/SSC/SSM permit,11/1/2021,1001873,MANHATTAN,101,85 WORTH STREET,1,40.71685028076172,-74.00520324707031
123469086,A2,CS/SSC/SSM permit,3/21/2021,1001877,MANHATTAN,101,66 LEONARD STREET,1,40.717350006103516,-74.00565338134766
123525603,A2,CS/SSC/SSM permit,1/31/2021,1001883,MANHATTAN,101,93 WORTH STREET,1,40.71664047241211,-74.00486755371094
120954770,A1,CS/SSC/SSM permit,4/14/2021,1001905,MANHATTAN,101,361 BROADWAY,1,40.717498779296875,-74.00399017333984
122913062,A1,CS/SSC/SSM permit,11/1/2021,1001934,MANHATTAN,101,51 WHITE STREET,1,40.71826934814453,-74.00409698486328
121205392,A1,CS/SSC/SSM permit,3/6/2021,1002004,MANHATTAN,101,29 LEONARD STREET,1,40.718570709228516,-74.00727081298828
121193243,A1,CS/SSC/SSM permit,1/24/2021,1002009,MANHATTAN,101,17 LEONARD STREET,1,40.71881866455078,-74.00779724121094
140906385,A2,CS/SSC/SSM permit,10/19/2021,1002221,MANHATTAN,101,395 BROADWAY,1,40.718650817871094,-74.00298309326172
104806104,A1,CS/SSC/SSM permit,3/10/2021,1002325,MANHATTAN,101,81 WALKER STREET,1,40.718040466308594,-74.00177001953125
120033132,A1,CS/SSC/SSM permit,1/27/2021,1002330,MANHATTAN,101,90 LAFAYETTE STREET,1,40.7175407409668,-74.00161743164062
123683530,A1,CS/SSC/SSM permit,12/28/2021,1002735,MANHATTAN,101,13 LAIGHT STREET,1,40.72154998779297,-74.00607299804688
121189249,A1,CS/SSC/SSM permit,12/30/2021,1002831,MANHATTAN,101,67 VESTRY STREET,1,40.722740173339844,-74.01122283935547
123467159,A2,CS/SSC/SSM permit,10/1/2021,1002927,MANHATTAN,101,456 GREENWICH STREET,1,40.72367858886719,-74.00995635986328
121193010,NB,CS/SSC/SSM permit,10/1/2021,1002927,MANHATTAN,101,456 GREENWICH STREET,3,40.72367858886719,-74.00995635986328
123868494,A2,CS/SSC/SSM permit,4/20/2021,1002934,MANHATTAN,102,75 VARICK STREET,1,40.72343826293945,-74.00682067871094
121183129,A1,CS/SSC/SSM permit,6/9/2021,1003019,MANHATTAN,102,455 BROADWAY,1,40.72077941894531,-74.0011215209961
140869692,A2,CS/SSC/SSM permit,6/5/2021,1003029,MANHATTAN,102,446 BROADWAY,1,40.72023010253906,-74.00074005126953
121204927,A1,CS/SSC/SSM permit,6/30/2021,1003029,MANHATTAN,102,446 BROADWAY,1,40.72023010253906,-74.00074005126953
122119803,A1,CS/SSC/SSM permit,9/1/2021,1003037,MANHATTAN,102,32 HOWARD STREET,1,40.719791412353516,-74.00057220458984
123541006,A2,CS/SSC/SSM permit,7/18/2021,1003049,MANHATTAN,102,151 GRAND STREET,1,40.719970703125,-73.99968719482422
122467678,A1,CS/SSC/SSM permit,7/18/2021,1003049,MANHATTAN,102,151 GRAND STREET,1,40.719970703125,-73.99968719482422
121203893,NB,CS/SSC/SSM permit,4/20/2021,1003074,MANHATTAN,102,185 GRAND STREET,1,40.719200134277344,-73.99756622314453
123509836,DM,CS/SSC/SSM permit,4/16/2021,1003254,MANHATTAN,103,32 RUTGERS STREET,1,40.71282958984375,-73.99030303955078
123265420,DM,CS/SSC/SSM permit,2/3/2021,1003260,MANHATTAN,103,140 HENRY ST,1,40.713130950927734,-73.99054718017578
122557928,NB,CS/SSC/SSM permit,6/8/2021,1003703,MANHATTAN,103,201 EAST BROADWAY,1,40.7140007019043,-73.98808288574219
110205377,A1,CS/SSC/SSM permit,8/25/2021,1003780,MANHATTAN,103,20 ELDRIDGE ST,1,40.714900970458984,-73.99337768554688
123570803,A1,CS/SSC/SSM permit,3/20/2021,1003903,MANHATTAN,103,149 CANAL STREET,1,40.7164306640625,-73.99546813964844
121184137,A1,CS/SSC/SSM permit,2/17/2021,1003985,MANHATTAN,103,57 ALLEN STREET,1,40.71699142456055,-73.99195098876953
123174769,A1,CS/SSC/SSM permit,2/9/2021,1003991,MANHATTAN,103,48 ALLEN STREET,1,40.71651077270508,-73.9913330078125
121131355,A1,CS/SSC/SSM permit,1/31/2021,1004006,MANHATTAN,103,325 GRAND STREET,1,40.71696853637695,-73.9906005859375
121205908,A1,CS/SSC/SSM permit,7/21/2021,1004054,MANHATTAN,103,228 E BROADWAY,1,40.714599609375,-73.9867172241211
121206337,NB,CS/SSC/SSM permit,8/31/2021,1004055,MANHATTAN,103,232 EAST BROADWAY,2,40.7146110534668,-73.98655700683594
103648055,A2,CS/SSC/SSM permit,1/31/2021,1004062,MANHATTAN,103,525 EAST HOUSTON STREET,1,40.71826934814453,-73.97608947753906
121205711,NB,CS/SSC/SSM permit,1/5/2022,1004110,MANHATTAN,103,66 CLINTON STREET,1,40.71934127807617,-73.98467254638672
123039808,NB,CS/SSC/SSM permit,9/20/2021,1004126,MANHATTAN,103,148 ATTORNEY STREET,1,40.72019958496094,-73.98335266113281
122098979,A1,CS/SSC/SSM permit,9/14/2021,1004274,MANHATTAN,103,171 ATTORNEY STREET,1,40.72090148925781,-73.98338317871094
122098960,A1,CS/SSC/SSM permit,9/14/2021,1004275,MANHATTAN,103,165 ATTORNEY STREET,1,40.72085189819336,-73.98348236083984
122098951,A1,CS/SSC/SSM permit,9/11/2021,1004276,MANHATTAN,103,163 ATTORNEY STREET,1,40.72079086303711,-73.9835205078125
121996849,A1,CS/SSC/SSM permit,9/11/2021,1004277,MANHATTAN,103,161 ATTORNEY STREET,1,40.72071838378906,-73.98355102539062
123706757,A1,CS/SSC/SSM permit,1/1/2022,1004481,MANHATTAN,103,264 EAST 7TH STREET,1,40.72330093383789,-73.97756958007812
123167447,NB,CS/SSC/SSM permit,8/5/2021,1004593,MANHATTAN,103,238 EAST 3RD STREET,3,40.72188949584961,-73.9817123413086
122498243,A1,CS/SSC/SSM permit,8/15/2021,1004699,MANHATTAN,103,619 EAST 6 STREET,1,40.724220275878906,-73.98045349121094
123765817,NB,CS/SSC/SSM permit,11/6/2021,1004906,MANHATTAN,103,183 AVENUE B,3,40.7276611328125,-73.97899627685547
123535843,A2,CS/SSC/SSM permit,4/1/2021,1005160,MANHATTAN,103,301 EAST 10TH STREET,1,40.72782897949219,-73.98162841796875
121188231,A1,CS/SSC/SSM permit,10/17/2021,1005200,MANHATTAN,103,202 AVENUE A,1,40.72932052612305,-73.98079681396484
123494664,A1,CS/SSC/SSM permit,3/27/2021,1005338,MANHATTAN,103,108 DELANCEY STREET,1,40.71897888183594,-73.98844146728516
123730418,A1,CS/SSC/SSM permit,3/27/2021,1005406,MANHATTAN,103,167 LUDLOW STREET,1,40.721649169921875,-73.98782348632812
123730436,A1,CS/SSC/SSM permit,3/27/2021,1005407,MANHATTAN,103,165 LUDLOW STREET,1,40.721580505371094,-73.98784637451172
123730427,A1,CS/SSC/SSM permit,3/27/2021,1005408,MANHATTAN,103,163 LUDLOW STREET,1,40.721519470214844,-73.98787689208984
123520555,A1,CS/SSC/SSM permit,2/16/2021,1005484,MANHATTAN,103,61 RIVINGTON STREET,1,40.7204704284668,-73.99034118652344
104822417,A1,CS/SSC/SSM permit,1/27/2021,1005569,MANHATTAN,103,293 BROOME STREET,1,40.71847152709961,-73.99202728271484
123215939,A1,CS/SSC/SSM permit,10/19/2021,1005618,MANHATTAN,103,143 EAST HOUSTON STREET,1,40.723018646240234,-73.989990234375
121205123,NB,CS/SSC/SSM permit,11/6/2021,1005635,MANHATTAN,103,145 BOWERY,3,40.71902084350586,-73.9942626953125
123455741,DM,CS/SSC/SSM permit,1/31/2021,1005734,MANHATTAN,103,24 1ST AVE,1,40.724098205566406,-73.98782348632812
123450014,A1,CS/SSC/SSM permit,4/19/2021,1005748,MANHATTAN,103,15 AVE A,1,40.722801208496094,-73.9862289428711
123578734,A1,CS/SSC/SSM permit,10/17/2021,1006204,MANHATTAN,103,84 2ND AVENUE,1,40.72650909423828,-73.9887924194336
123909930,A2,CS/SSC/SSM permit,11/23/2021,1006396,MANHATTAN,103,53 ST MARKS PLACE,1,40.728370666503906,-73.9865493774414
121114524,A2,CS/SSC/SSM permit,10/17/2021,1006432,MANHATTAN,103,153 FIRST AVENUE,1,40.72858810424805,-73.98499298095703
122812527,A2,CS/SSC/SSM permit,5/15/2021,1006472,MANHATTAN,103,180 SECOND AVENUE,1,40.73054122924805,-73.9858627319336
123038033,A1,CS/SSC/SSM permit,5/15/2021,1006472,MANHATTAN,103,180 SECOND AVENUE,1,40.73054122924805,-73.9858627319336
123393791,A1,CS/SSC/SSM permit,4/1/2021,1006543,MANHATTAN,103,327 BOWERY,1,40.72570037841797,-73.9916763305664
123370921,A2,CS/SSC/SSM permit,3/27/2021,1006549,MANHATTAN,103,36 E. 3 STREET,1,40.72555160522461,-73.99022674560547
122704644,A1,CS/SSC/SSM permit,2/22/2021,1006805,MANHATTAN,103,104 EAST 10TH STREET,1,40.73040008544922,-73.9886703491211
121186750,A1,CS/SSC/SSM permit,4/1/2021,1007046,MANHATTAN,102,38 GREENE ST,1,40.72169876098633,-74.00187683105469
123554359,A1,CS/SSC/SSM permit,4/24/2021,1007062,MANHATTAN,102,357 WEST BROADWAY,1,40.722900390625,-74.00299835205078
123297814,A1,CS/SSC/SSM permit,3/20/2021,1007079,MANHATTAN,102,51 GREENE STREET,1,40.72233963012695,-74.00192260742188
123473151,A1,CS/SSC/SSM permit,10/2/2021,1007080,MANHATTAN,102,47 GREENE STREET,1,40.722251892089844,-74.00199127197266
121784701,NB,CS/SSC/SSM permit,11/1/2021,1007085,MANHATTAN,102,74 GRAND STREET,1,40.722068786621094,-74.00263977050781
123730061,A2,CS/SSC/SSM permit,1/31/2021,1007135,MANHATTAN,102,172 ELIZABETH STREET,1,40.720951080322266,-73.9946517944336
123819305,A1,CS/SSC/SSM permit,11/24/2021,1007174,MANHATTAN,102,178 MOTT STREET,1,40.7203483581543,-73.99578094482422
123664560,A2,CS/SSC/SSM permit,4/20/2021,1007192,MANHATTAN,102,378 BROOME STREET,1,40.720550537109375,-73.99630737304688
123165831,A1,CS/SSC/SSM permit,4/20/2021,1007192,MANHATTAN,102,378 BROOME STREET,1,40.720550537109375,-73.99630737304688
121329204,A1,CS/SSC/SSM permit,4/1/2021,1007283,MANHATTAN,102,74 WOOSTER STREET,1,40.7235107421875,-74.00138092041016
121165130,A1,CS/SSC/SSM permit,10/17/2021,1007367,MANHATTAN,102,59 THOMPSON STREET,1,40.72420883178711,-74.00350189208984
122466429,A2,CS/SSC/SSM permit,10/17/2021,1007367,MANHATTAN,102,59 THOMPSON STREET,1,40.72420883178711,-74.00350189208984
123376523,A1,CS/SSC/SSM permit,1/1/2022,1007393,MANHATTAN,102,204 ELIZABETH STREET,1,40.722068786621094,-73.994140625
123043679,A1,CS/SSC/SSM permit,3/19/2021,1007784,MANHATTAN,102,180 PRINCE STREET,1,40.72615051269531,-74.00215911865234
122186810,A1,CS/SSC/SSM permit,8/25/2021,1007833,MANHATTAN,102,9 VANDAM STREET,1,40.72650909423828,-74.00409698486328
123802821,A2,CS/SSC/SSM permit,8/25/2021,1007833,MANHATTAN,102,9 VANDAM STREET,1,40.72650909423828,-74.00409698486328
121190291,NB,CS/SSC/SSM permit,4/1/2021,1007873,MANHATTAN,102,258 BOWERY,1,40.72325134277344,-73.99331665039062
123369924,A2,CS/SSC/SSM permit,7/18/2021,1008000,MANHATTAN,102,125 GREENE ST,1,40.72554016113281,-73.99920654296875
120943729,A2,CS/SSC/SSM permit,1/31/2021,1008089,MANHATTAN,102,40 KING STREET,1,40.7275505065918,-74.00433349609375
121326608,A1,CS/SSC/SSM permit,4/1/2021,1008106,MANHATTAN,102,19 CHARLTON STREET,1,40.72724914550781,-74.00406646728516
122695379,A2,CS/SSC/SSM permit,3/17/2021,1008117,MANHATTAN,102,180 VARICK ST,1,40.727481842041016,-74.005126953125
121187777,A1,CS/SSC/SSM permit,1/28/2021,1008133,MANHATTAN,102,41 KING STREET,1,40.72801971435547,-74.0044937133789
123424623,A2,CS/SSC/SSM permit,2/1/2021,1008136,MANHATTAN,102,51 MACDOUGAL STREET,1,40.72795867919922,-74.00248718261719
121233147,A1,CS/SSC/SSM permit,2/1/2021,1008136,MANHATTAN,102,51 MACDOUGAL STREET,1,40.72795867919922,-74.00248718261719
122342198,A2,CS/SSC/SSM permit,10/21/2021,1008182,MANHATTAN,102,36 BLEECKER STREET,1,40.725460052490234,-73.99408721923828
123151908,A1,CS/SSC/SSM permit,9/21/2021,1008376,MANHATTAN,102,29 DOWNING STREET,1,40.72956085205078,-74.00346374511719
123046257,A1,CS/SSC/SSM permit,1/1/2022,1008479,MANHATTAN,102,39 GREAT JONES STREET,1,40.72666931152344,-73.99295043945312
123375908,A2,CS/SSC/SSM permit,6/29/2021,1008507,MANHATTAN,102,686 BROADWAY,1,40.727909088134766,-73.99424743652344
140854047,A3,CS/SSC/SSM permit,3/1/2021,1008848,MANHATTAN,102,6 EAST 8TH STREET,1,40.7318115234375,-73.995849609375
123744537,A2,CS/SSC/SSM permit,3/1/2021,1008875,MANHATTAN,102,33 WASHINGTON SQUARE WEST,1,40.7315788269043,-73.99957275390625
122555225,A2,CS/SSC/SSM permit,1/10/2021,1008962,MANHATTAN,103,115 EAST 9TH STREET,1,40.7305793762207,-73.9896011352539
123909048,A2,CS/SSC/SSM permit,4/26/2021,1009195,MANHATTAN,102,31 EAST 12TH STREET,1,40.733970642089844,-73.9924087524414
140945761,A2,CS/SSC/SSM permit,6/5/2021,1009222,MANHATTAN,102,11 FIFTH AVE,1,40.73234939575195,-73.99566650390625
140910012,A2,CS/SSC/SSM permit,1/30/2021,1009252,MANHATTAN,102,41 5 AVENUE,1,40.733741760253906,-73.99478149414062
123875814,A2,CS/SSC/SSM permit,4/1/2021,1009429,MANHATTAN,102,20 5TH AVENUE,1,40.73283004760742,-73.99639129638672
122371245,A1,CS/SSC/SSM permit,12/15/2021,1009468,MANHATTAN,102,36 WEST 10 STREET,1,40.73395919799805,-73.99727630615234
122739180,A1,CS/SSC/SSM permit,8/1/2021,1009471,MANHATTAN,102,30 WEST 10TH STREET,1,40.73387908935547,-73.99710845947266
122962561,A1,CS/SSC/SSM permit,4/15/2021,1009546,MANHATTAN,102,21 WEST 10TH STREET,1,40.7341194152832,-73.99653625488281
121825294,A1,CS/SSC/SSM permit,7/14/2021,1009555,MANHATTAN,102,39 WEST 10 STREET,1,40.73442077636719,-73.99725341796875
123500595,A1,CS/SSC/SSM permit,5/19/2021,1009733,MANHATTAN,102,574 BROOME STREET,1,40.72467041015625,-74.00675201416016
103642033,A2,CS/SSC/SSM permit,4/1/2021,1009757,MANHATTAN,102,16 CLARKSON STREET,1,40.72904968261719,-74.00615692138672
123881139,A2,CS/SSC/SSM permit,3/14/2021,1009782,MANHATTAN,102,68 MORTON STREET,1,40.73078918457031,-74.00636291503906
123416794,A1,CS/SSC/SSM permit,4/15/2021,1009783,MANHATTAN,102,66 MORTON STREET,1,40.73067855834961,-74.00627899169922
123689455,A1,CS/SSC/SSM permit,8/21/2021,1009901,MANHATTAN,102,16 LEROY STREET,1,40.7305793762207,-74.00331115722656
123795287,A2,CS/SSC/SSM permit,5/16/2021,1010310,MANHATTAN,102,289 HUDSON STREET,1,40.725711822509766,-74.00782012939453
123879240,DM,CS/SSC/SSM permit,6/11/2021,1010310,MANHATTAN,102,289 HUDSON STREET,1,40.725711822509766,-74.00782012939453
123564990,A1,CS/SSC/SSM permit,3/24/2021,1010337,MANHATTAN,101,142 WATTS STREET,1,40.72431945800781,-74.01006317138672
123156057,A1,CS/SSC/SSM permit,9/28/2021,1010356,MANHATTAN,102,550 WASHINGTON STREET,1,40.728580474853516,-74.00997924804688
121185742,A1,CS/SSC/SSM permit,2/4/2021,1010366,MANHATTAN,102,535 GREENWICH STREET,1,40.72690963745117,-74.00863647460938
121021376,A2,CS/SSC/SSM permit,2/4/2021,1010366,MANHATTAN,102,535 GREENWICH STREET,1,40.72690963745117,-74.00863647460938
140918443,A2,CS/SSC/SSM permit,9/23/2021,1010378,MANHATTAN,102,345 HUDSON ST,1,40.72774887084961,-74.00785827636719
123153559,A1,CS/SSC/SSM permit,2/28/2021,1010396,MANHATTAN,102,39 CLARKSON ST,1,40.72978973388672,-74.00772857666016
123431740,A2,CS/SSC/SSM permit,10/3/2021,1010599,MANHATTAN,102,158 WEST 13TH STREET,1,40.73746109008789,-73.99981689453125
123704401,A2,CS/SSC/SSM permit,1/30/2021,1010619,MANHATTAN,102,101 WEST 12TH STREET,1,40.736480712890625,-73.99797821044922
123300169,A1,CS/SSC/SSM permit,1/1/2022,1010669,MANHATTAN,102,182 WAVERLY PLACE,1,40.73429870605469,-74.00157928466797
123350104,A1,CS/SSC/SSM permit,4/1/2021,1010938,MANHATTAN,102,59 GREENWICH AVE,1,40.73603057861328,-74.00105285644531
123736724,A2,CS/SSC/SSM permit,2/4/2021,1010953,MANHATTAN,102,34 BANK STREET,1,40.73677062988281,-74.0028305053711
123880283,A1,CS/SSC/SSM permit,2/4/2021,1010953,MANHATTAN,102,34 BANK STREET,1,40.73677062988281,-74.0028305053711
123710494,A2,CS/SSC/SSM permit,8/5/2021,1010959,MANHATTAN,102,22 BANK STREET,1,40.736839294433594,-74.00241088867188
122115969,A1,CS/SSC/SSM permit,7/18/2021,1010985,MANHATTAN,102,10 BANK STREET,1,40.736961364746094,-74.00186920166016
123379904,A1,CS/SSC/SSM permit,6/1/2021,1011013,MANHATTAN,102,246 WEST 12 STREET,1,40.737449645996094,-74.00251007080078
122119723,A1,CS/SSC/SSM permit,1/21/2021,1011047,MANHATTAN,102,107 GREENWICH AVENUE,1,40.73788070678711,-74.00213623046875
123490338,A1,CS/SSC/SSM permit,3/14/2021,1011120,MANHATTAN,102,225 WEST 13 STREET,1,40.73857879638672,-74.00126647949219
122920893,A1,CS/SSC/SSM permit,3/27/2021,1011278,MANHATTAN,102,81 CHARLES STREET,1,40.73490905761719,-74.00438690185547
121276724,A1,CS/SSC/SSM permit,12/31/2021,1011306,MANHATTAN,102,278 WEST 11TH STREET,1,40.7358283996582,-74.00457763671875
121187376,A1,CS/SSC/SSM permit,11/1/2021,1011314,MANHATTAN,102,282 WEST 4TH STREET,1,40.73601150512695,-74.00364685058594
122765016,A1,CS/SSC/SSM permit,8/7/2021,1011350,MANHATTAN,102,58 BANK STREET,1,40.736629486083984,-74.00401306152344
121204669,A1,CS/SSC/SSM permit,10/2/2021,1011351,MANHATTAN,102,56 BANK STREET,1,40.736690521240234,-74.00393676757812
123401443,A1,CS/SSC/SSM permit,3/15/2021,1011361,MANHATTAN,102,265 W. 11 ST,1,40.7363395690918,-74.00408935546875
123867565,A2,CS/SSC/SSM permit,3/15/2021,1011361,MANHATTAN,102,265 WEST 11 STREET,1,40.7363395690918,-74.00408935546875
140934461,A2,CS/SSC/SSM permit,8/10/2021,1011362,MANHATTAN,102,269 WEST 11TH STREET,1,40.73632049560547,-74.00425720214844
122639449,A1,CS/SSC/SSM permit,5/19/2021,1011362,MANHATTAN,102,269 WEST 11TH STREET,1,40.73632049560547,-74.00425720214844
121193225,A1,CS/SSC/SSM permit,6/27/2021,1011654,MANHATTAN,102,44 HORATIO STREET,1,40.738609313964844,-74.0049819946289
123154665,A1,CS/SSC/SSM permit,5/27/2021,1011658,MANHATTAN,102,24 HORATIO STREET,1,40.7386589050293,-74.00408172607422
121333912,A1,CS/SSC/SSM permit,6/3/2021,1011751,MANHATTAN,102,271 WEST 10TH STREET,1,40.73371887207031,-74.0077896118164
122864613,NB,CS/SSC/SSM permit,6/1/2021,1011870,MANHATTAN,102,145 PERRY STREET,3,40.735069274902344,-74.0081787109375
123718183,A2,CS/SSC/SSM permit,4/10/2021,1011915,MANHATTAN,102,769 GREENWICH STREET,1,40.73632049560547,-74.00652313232422
121515182,A1,CS/SSC/SSM permit,6/29/2021,1011991,MANHATTAN,102,403 WEST STREET,1,40.73374938964844,-74.00981903076172
123013078,A2,CS/SSC/SSM permit,1/31/2021,1011991,MANHATTAN,102,404 WEST STREET,1,40.73374938964844,-74.00981903076172
123834627,A1,CS/SSC/SSM permit,6/1/2021,1012096,MANHATTAN,102,775 WASHINGTON STREET,1,40.73775100708008,-74.00787353515625
123829688,A2,CS/SSC/SSM permit,11/1/2021,1012131,MANHATTAN,102,783 WASHINGTON STREET,1,40.73823928833008,-74.00794219970703
123394086,A1,CS/SSC/SSM permit,12/31/2021,1012147,MANHATTAN,102,75 JANE STREET,1,40.738319396972656,-74.007080078125
122660851,A1,CS/SSC/SSM permit,1/1/2022,1012151,MANHATTAN,102,85 JANE STREET,1,40.738319396972656,-74.00750732421875
123173715,A2,CS/SSC/SSM permit,1/1/2022,1012151,MANHATTAN,102,85 JANE STREET,1,40.738319396972656,-74.00750732421875
122707419,A1,CS/SSC/SSM permit,8/16/2021,1012168,MANHATTAN,102,83 HORATIO STREET,1,40.73894119262695,-74.00760650634766
122816863,A1,CS/SSC/SSM permit,4/1/2021,1012196,MANHATTAN,102,55 GANSEVOORT STREET,1,40.73955154418945,-74.0071029663086
122781873,A2,CS/SSC/SSM permit,4/1/2021,1012196,MANHATTAN,102,55 GANSEVOORT STREET,1,40.73955154418945,-74.0071029663086
121188918,NB,CS/SSC/SSM permit,9/25/2021,1012272,MANHATTAN,104,601 WEST 29TH STREET,3,40.753231048583984,-74.00498962402344
121204874,NB,CS/SSC/SSM permit,4/1/2021,1012275,MANHATTAN,104,606 WEST 30 STREET,2,40.75339889526367,-74.0047607421875
121204990,A1,CS/SSC/SSM permit,10/1/2021,1012308,MANHATTAN,104,541 WEST 21 STREET,1,40.747398376464844,-74.00689697265625
123804507,A2,CS/SSC/SSM permit,4/3/2021,1012308,MANHATTAN,104,541 WEST 21 STREET,1,40.747398376464844,-74.00689697265625
122085448,A1,CS/SSC/SSM permit,6/1/2021,1012572,MANHATTAN,104,455 WEST 19TH STREET,1,40.745140075683594,-74.00520324707031
122979401,A2,CS/SSC/SSM permit,1/31/2021,1012575,MANHATTAN,104,435 WEST 19 STREET,1,40.744808197021484,-74.00440979003906
122461512,A2,CS/SSC/SSM permit,1/31/2021,1012575,MANHATTAN,104,435 WEST 19 STREET,1,40.744808197021484,-74.00440979003906
122674935,DM,CS/SSC/SSM permit,4/3/2021,1012835,MANHATTAN,104,434 WEST 31ST STREET,1,40.75196075439453,-73.9993667602539
122665464,DM,CS/SSC/SSM permit,4/3/2021,1012835,MANHATTAN,104,432 WEST 31ST STREET,1,40.75196075439453,-73.9993667602539
122783201,A2,CS/SSC/SSM permit,4/1/2021,1012857,MANHATTAN,104,455 W 34TH ST,1,40.75455093383789,-73.99836730957031
122865319,NB,CS/SSC/SSM permit,10/25/2021,1012975,MANHATTAN,104,441 WEST 37TH STREET,1,40.756248474121094,-73.99664306640625
122872481,A1,CS/SSC/SSM permit,4/1/2021,1013026,MANHATTAN,104,320 W 15 ST,1,40.74065017700195,-74.0030517578125
123801519,A2,CS/SSC/SSM permit,10/6/2021,1013043,MANHATTAN,104,111 EIGHTH AVENUE,1,40.74135971069336,-74.0031967163086
123393201,A1,CS/SSC/SSM permit,11/15/2021,1013196,MANHATTAN,104,367 WEST 19TH STREET,1,40.744049072265625,-74.00260162353516
123060757,A1,CS/SSC/SSM permit,3/8/2021,1013225,MANHATTAN,104,318 WEST 20TH STREET,1,40.74365997314453,-74.00096893310547
122814115,A1,CS/SSC/SSM permit,1/31/2021,1013233,MANHATTAN,104,334 WEST 20 STREET,1,40.743858337402344,-74.0014419555664
140856189,A2,CS/SSC/SSM permit,11/21/2021,1013330,MANHATTAN,104,348 WEST 22 STREET,1,40.745269775390625,-74.00106811523438
123561369,NB,CS/SSC/SSM permit,8/14/2021,1013491,MANHATTAN,104,300 WEST 30 STREET,2,40.74964904785156,-73.99571990966797
123690568,A1,CS/SSC/SSM permit,9/18/2021,1013509,MANHATTAN,104,366 WEST 30 STREET,1,40.7504997253418,-73.99786376953125
123845964,A2,CS/SSC/SSM permit,8/9/2021,1013553,MANHATTAN,104,330 WEST 34 STREET,1,40.752601623535156,-73.9955062866211
121507208,A1,CS/SSC/SSM permit,6/25/2021,1013566,MANHATTAN,104,335 WEST 35TH STREET,1,40.753658294677734,-73.99430847167969
123781648,A2,CS/SSC/SSM permit,3/20/2021,1013574,MANHATTAN,104,315 WEST 35TH STREET,1,40.75334167480469,-73.99356079101562
123780097,A2,CS/SSC/SSM permit,3/29/2021,1013599,MANHATTAN,104,535 8TH AVENUE,1,40.75400161743164,-73.9925537109375
123817389,A2,CS/SSC/SSM permit,6/25/2021,1013622,MANHATTAN,104,545 8TH AVENUE,1,40.75450134277344,-73.99217987060547
140842818,A3,CS/SSC/SSM permit,4/1/2021,1013623,MANHATTAN,104,555 8TH AVENUE,1,40.75468063354492,-73.99214172363281
121188801,A1,CS/SSC/SSM permit,3/1/2021,1013637,MANHATTAN,104,341 WEST 38TH STREET,1,40.755699157714844,-73.99339294433594
123815256,A2,CS/SSC/SSM permit,7/14/2021,1013643,MANHATTAN,104,307 WEST 38TH STREET,1,40.75522994995117,-73.99215698242188
123834501,DM,CS/SSC/SSM permit,5/1/2021,1013700,MANHATTAN,104,355 WEST 39 STREET,1,40.75651931762695,-73.99349975585938
123126241,A2,CS/SSC/SSM permit,3/1/2021,1013711,MANHATTAN,104,80 8 AVENUE,1,40.73986053466797,-74.0020523071289
121189052,NB,CS/SSC/SSM permit,6/18/2021,1013740,MANHATTAN,104,214 WEST 15TH STREET,2,40.73942184448242,-74.00012969970703
123804320,A2,CS/SSC/SSM permit,3/25/2021,1013854,MANHATTAN,104,212 WEST 18TH STREET,1,40.741050720214844,-73.99874877929688
122365485,A2,CS/SSC/SSM permit,4/26/2021,1013881,MANHATTAN,104,209 WEST 18TH STREET,1,40.74148941040039,-73.99832153320312
121991620,A1,CS/SSC/SSM permit,4/1/2021,1014081,MANHATTAN,104,224 WEST 22 ST,1,40.74361038208008,-73.99714660644531
121189472,A1,CS/SSC/SSM permit,5/26/2021,1014109,MANHATTAN,104,259 WEST 22 STREET,1,40.744361877441406,-73.99775695800781
140929949,A2,CS/SSC/SSM permit,11/9/2021,1014176,MANHATTAN,104,252 7 AVENUE,1,40.74531173706055,-73.9954833984375
121206140,NB,CS/SSC/SSM permit,12/21/2021,1014254,MANHATTAN,105,241 WEST 28TH STREET,2,40.74829864501953,-73.99494934082031
121205105,NB,CS/SSC/SSM permit,11/20/2021,1014262,MANHATTAN,105,322 7TH AVENUE,3,40.74747848510742,-73.99358367919922
122259359,A2,CS/SSC/SSM permit,3/17/2021,1014282,MANHATTAN,105,245 WEST 29TH STREET,1,40.7487907409668,-73.99453735351562
122539324,A2,CS/SSC/SSM permit,3/17/2021,1014282,MANHATTAN,105,245 WEST 29TH STREET,1,40.7487907409668,-73.99453735351562
122917264,A2,CS/SSC/SSM permit,5/7/2021,1014290,MANHATTAN,105,350 7TH AVENUE,1,40.74824142456055,-73.9931411743164
123302372,A2,CS/SSC/SSM permit,5/7/2021,1014303,MANHATTAN,105,242 WEST 30TH ST,1,40.74909973144531,-73.99452209472656
123764480,A2,CS/SSC/SSM permit,11/1/2021,1014387,MANHATTAN,105,1 PENN PLAZA,1,40.751258850097656,-73.99237060546875
123821454,A1,CS/SSC/SSM permit,7/1/2021,1014387,MANHATTAN,105,1 PENN PLAZA,1,40.751258850097656,-73.99237060546875
123847668,A2,CS/SSC/SSM permit,5/21/2021,1014415,MANHATTAN,105,240 WEST 35 STREET,1,40.752140045166016,-73.99185180664062
123875805,A2,CS/SSC/SSM permit,3/9/2021,1014416,MANHATTAN,105,248 WEST 35TH STREET,1,40.75225830078125,-73.99212646484375
123848505,A2,CS/SSC/SSM permit,12/1/2021,1014425,MANHATTAN,105,237 WEST 35TH STREET,1,40.75246047973633,-73.99146270751953
123839579,A2,CS/SSC/SSM permit,3/14/2021,1014491,MANHATTAN,105,270 WEST 39TH STREET,1,40.75503158569336,-73.99095153808594
140922205,A1,CS/SSC/SSM permit,10/10/2021,1014492,MANHATTAN,105,592 8 AVENUE,1,40.75503921508789,-73.99105834960938
123590122,A2,CS/SSC/SSM permit,1/31/2021,1014497,MANHATTAN,105,257 WEST 39TH STREET,1,40.75524139404297,-73.99037170410156
140876014,A2,CS/SSC/SSM permit,6/25/2021,1014505,MANHATTAN,105,202 WEST 40 STREET,1,40.754791259765625,-73.98854064941406
140958998,A2,CS/SSC/SSM permit,11/12/2021,1014511,MANHATTAN,105,264 WEST 40TH STREET,1,40.755550384521484,-73.99037170410156
123174803,NB,CS/SSC/SSM permit,10/15/2021,1014526,MANHATTAN,104,531 SIXTH AVENUE,3,40.73768997192383,-73.99696350097656
140919665,A2,CS/SSC/SSM permit,3/5/2021,1014551,MANHATTAN,104,135 WEST 15TH ST,1,40.73883819580078,-73.99761962890625
122288602,A1,CS/SSC/SSM permit,1/8/2021,1014557,MANHATTAN,104,121 WEST 15TH STREET,1,40.7386589050293,-73.99717712402344
120794541,A2,CS/SSC/SSM permit,1/31/2021,1014572,MANHATTAN,104,161 WEST 16TH STREET,1,40.7399787902832,-73.99823760986328
121189515,A1,CS/SSC/SSM permit,4/29/2021,1014713,MANHATTAN,104,157 WEST 18TH STREET,1,40.74092102050781,-73.9969711303711
123118884,NB,CS/SSC/SSM permit,8/5/2021,1015022,MANHATTAN,104,128 WEST 26TH STREET,3,40.7451286315918,-73.99278259277344
140942229,A2,CS/SSC/SSM permit,1/24/2021,1015028,MANHATTAN,104,152 WEST 26 STREET,1,40.74552917480469,-73.99372863769531
140729264,A2,CS/SSC/SSM permit,1/31/2021,1015097,MANHATTAN,105,333 7 AVENUE,1,40.74740982055664,-73.99282836914062
121494481,A2,CS/SSC/SSM permit,5/7/2021,1015152,MANHATTAN,105,150 WEST 30 STREET,1,40.74803924560547,-73.99198913574219
123816638,A2,CS/SSC/SSM permit,9/10/2021,1015244,MANHATTAN,105,1370 BROADWAY,1,40.75178909301758,-73.9871597290039
123815835,A2,CS/SSC/SSM permit,9/10/2021,1015244,MANHATTAN,105,1370 BROADWAY,1,40.75178909301758,-73.9871597290039
123578636,A2,CS/SSC/SSM permit,1/31/2021,1015266,MANHATTAN,105,1400 BROADWAY,1,40.752960205078125,-73.98668670654297
123697124,A3,CS/SSC/SSM permit,1/7/2021,1015273,MANHATTAN,105,108 WEST  39 STREET,1,40.75299072265625,-73.98622131347656
123830355,A2,CS/SSC/SSM permit,4/1/2021,1015292,MANHATTAN,105,96 5TH AVENUE,1,40.73666000366211,-73.99363708496094
121186448,NB,CS/SSC/SSM permit,8/26/2021,1015293,MANHATTAN,105,20 WEST 15 STREET,1,40.73701095581055,-73.99437713623047
122979330,A1,CS/SSC/SSM permit,7/1/2021,1015457,MANHATTAN,105,12 WEST 19 STREET,1,40.739280700683594,-73.99236297607422
121204080,A1,CS/SSC/SSM permit,6/29/2021,1015492,MANHATTAN,105,23 WEST 20TH STREET,1,40.740509033203125,-73.99237823486328
123822042,A1,CS/SSC/SSM permit,1/1/2022,1015541,MANHATTAN,105,28 WEST 22ND STREET,1,40.741371154785156,-73.99183654785156
140914857,A2,CS/SSC/SSM permit,3/1/2021,1015602,MANHATTAN,105,10 MADISON SQUARE WEST,1,40.74272155761719,-73.98957824707031
123880586,A2,CS/SSC/SSM permit,3/4/2021,1015608,MANHATTAN,105,36 WEST 25TH STREET,1,40.743499755859375,-73.99082946777344
123842878,A2,CS/SSC/SSM permit,3/13/2021,1015625,MANHATTAN,105,1133 BROADWAY,1,40.74367904663086,-73.98937225341797
140960477,A2,CS/SSC/SSM permit,12/22/2021,1015658,MANHATTAN,105,12 WEST 27 STREET,1,40.74449920654297,-73.98937225341797
123849130,DM,CS/SSC/SSM permit,4/3/2021,1015741,MANHATTAN,105,40 WEST 29 STREET,1,40.74610900878906,-73.9893569946289
121204419,NB,CS/SSC/SSM permit,6/17/2021,1015751,MANHATTAN,105,842 6 AVENUE,1,40.746849060058594,-73.98947143554688
123303059,A1,CS/SSC/SSM permit,1/12/2021,1015895,MANHATTAN,105,21 WEST 35TH STREET,1,40.74980163574219,-73.98515319824219
123212692,A2,CS/SSC/SSM permit,3/29/2021,1015997,MANHATTAN,105,29 WEST 38TH STREET,1,40.75185012817383,-73.98426055908203
123111952,NB,CS/SSC/SSM permit,1/28/2021,1016018,MANHATTAN,105,58 WEST 39TH STREET,2,40.75246047973633,-73.98493957519531
123387290,A2,CS/SSC/SSM permit,1/29/2021,1016035,MANHATTAN,105,55 WEST 39 STREET,1,40.75286102294922,-73.98475646972656
140902735,A2,CS/SSC/SSM permit,1/1/2022,1016046,MANHATTAN,105,4 WEST 40TH STREET,1,40.75204849243164,-73.98248291015625
140878977,A2,CS/SSC/SSM permit,5/23/2021,1016057,MANHATTAN,105,54 WEST 40TH STREET,1,40.75297164916992,-73.98423767089844
123832512,A2,CS/SSC/SSM permit,2/16/2021,1016058,MANHATTAN,105,58 WEST 40TH STREET,1,40.7530403137207,-73.98442840576172
140788440,A2,CS/SSC/SSM permit,1/31/2021,1016079,MANHATTAN,105,79 5 AVE,1,40.736968994140625,-73.99239349365234
123774497,A1,CS/SSC/SSM permit,6/30/2021,1016152,MANHATTAN,105,230 PARK AVENUE SOUTH,1,40.737701416015625,-73.98876190185547
123502183,A1,CS/SSC/SSM permit,5/1/2021,1016154,MANHATTAN,105,888 BROADWAY,1,40.73814010620117,-73.98970031738281
123813221,A1,CS/SSC/SSM permit,7/1/2021,1016250,MANHATTAN,105,41 EAST 21 ST,1,40.73942184448242,-73.98796081542969
123730953,A2,CS/SSC/SSM permit,3/25/2021,1016278,MANHATTAN,105,175 FIFTH AVENUE,1,40.740989685058594,-73.9896469116211
123699257,A2,CS/SSC/SSM permit,3/1/2021,1016286,MANHATTAN,105,300 PARK AVENUE SOUTH,1,40.73984909057617,-73.98700714111328
123695484,A2,CS/SSC/SSM permit,6/12/2021,1016748,MANHATTAN,105,360 PARK AVENUE SOUTH,1,40.74209976196289,-73.98558807373047
123887455,A2,CS/SSC/SSM permit,6/12/2021,1016748,MANHATTAN,105,360 PARK AVENUE SOUTH,1,40.74209976196289,-73.98558807373047
123534041,A2,CS/SSC/SSM permit,1/31/2021,1016749,MANHATTAN,105,41 MADISON AVENUE,1,40.74237823486328,-73.98626708984375
123426444,A2,CS/SSC/SSM permit,3/1/2021,1016877,MANHATTAN,105,15 EAST 26 STREET,1,40.74333953857422,-73.98700714111328
123853437,A2,CS/SSC/SSM permit,6/29/2021,1016889,MANHATTAN,105,28 EAST 28TH STREET,1,40.74346923828125,-73.98536682128906
123546261,A2,CS/SSC/SSM permit,10/2/2021,1016907,MANHATTAN,105,404 PARK AVENUE SOUTH,1,40.743621826171875,-73.9842300415039
123510815,A2,CS/SSC/SSM permit,1/31/2021,1016934,MANHATTAN,105,432 PARK AVE SOUTH,1,40.744258880615234,-73.98377227783203
123842538,A1,CS/SSC/SSM permit,9/24/2021,1016951,MANHATTAN,105,295 FIFTH AVENUE,1,40.74605178833008,-73.98573303222656
140923847,A2,CS/SSC/SSM permit,3/23/2021,1016972,MANHATTAN,105,131 MADISON AVENUE,1,40.74559020996094,-73.98419189453125
123120531,A2,CS/SSC/SSM permit,4/10/2021,1016981,MANHATTAN,105,303 5TH AVENUE,1,40.746498107910156,-73.98548126220703
123831737,A2,CS/SSC/SSM permit,3/24/2021,1017082,MANHATTAN,105,171 MADISON AVENUE,1,40.74713897705078,-73.98306274414062
122973407,A2,CS/SSC/SSM permit,3/27/2021,1017084,MANHATTAN,105,4 PARK AVENUE,1,40.74686813354492,-73.98194885253906
140884087,A2,CS/SSC/SSM permit,2/1/2021,1017206,MANHATTAN,106,52 PARK AVENUE,1,40.74934005737305,-73.98014068603516
140870975,A2,CS/SSC/SSM permit,10/21/2021,1017361,MANHATTAN,106,80 PARK AVENUE,1,40.75020980834961,-73.97965240478516
103647706,A2,CS/SSC/SSM permit,3/18/2021,1017828,MANHATTAN,106,40 IRVING PLACE,1,40.735321044921875,-73.98709106445312
122177312,A2,CS/SSC/SSM permit,1/1/2022,1017910,MANHATTAN,106,111 EAST 19TH STREET,1,40.737548828125,-73.98722076416016
122717079,A2,CS/SSC/SSM permit,3/27/2021,1017914,MANHATTAN,106,81 IRVING PLACE,1,40.737300872802734,-73.9867172241211
121227118,A1,CS/SSC/SSM permit,7/14/2021,1017951,MANHATTAN,106,4 GRAMERCY PARK WEST,1,40.73834991455078,-73.98689270019531
123772195,A2,CS/SSC/SSM permit,1/31/2021,1017997,MANHATTAN,106,39 GRAMERCY PARK NORTH,1,40.73786926269531,-73.98433685302734
123504662,A2,CS/SSC/SSM permit,5/24/2021,1018159,MANHATTAN,105,381 PARK AVENUE SOUTH,1,40.74235916137695,-73.98420715332031
123912016,A2,CS/SSC/SSM permit,3/17/2021,1018204,MANHATTAN,105,407 PARK AVENUE SOUTH,1,40.743370056152344,-73.98362731933594
123436077,A2,CS/SSC/SSM permit,1/31/2021,1018205,MANHATTAN,105,108 EAST 29TH STREET,1,40.74332046508789,-73.98314666748047
123480125,NB,CS/SSC/SSM permit,6/9/2021,1018311,MANHATTAN,106,165 LEXINGTON AVENUE,1,40.74396896362305,-73.98114776611328
140956865,A2,CS/SSC/SSM permit,7/15/2021,1018480,MANHATTAN,106,165 EAST 32ND STREET,1,40.74475860595703,-73.97923278808594
140762360,A2,CS/SSC/SSM permit,1/6/2021,1018516,MANHATTAN,106,15 PARK AVENUE,1,40.74740982055664,-73.98065948486328
140762379,A2,CS/SSC/SSM permit,1/6/2021,1018548,MANHATTAN,106,17 PARK AVENUE,1,40.74740982055664,-73.98065948486328
122046561,A1,CS/SSC/SSM permit,10/30/2021,1018906,MANHATTAN,106,155 EAST 35 STREET,1,40.746891021728516,-73.97824096679688
123254263,A1,CS/SSC/SSM permit,10/1/2021,1019101,MANHATTAN,106,150 E 38 ST,1,40.748409271240234,-73.97724151611328
123491596,A2,CS/SSC/SSM permit,5/24/2021,1019118,MANHATTAN,106,108 EAST 38TH STREET,1,40.74911117553711,-73.97889709472656
123903874,A2,CS/SSC/SSM permit,6/7/2021,1019484,MANHATTAN,106,148 EAST 40 STREET,1,40.74958038330078,-73.9761962890625
123070522,A1,CS/SSC/SSM permit,12/5/2021,1019552,MANHATTAN,106,205 EAST 17TH STREET,1,40.73516082763672,-73.98513793945312
140787370,A2,CS/SSC/SSM permit,7/27/2021,1019580,MANHATTAN,106,205 THIRD AVENUE,1,40.73591995239258,-73.98477935791016
123814042,A2,CS/SSC/SSM permit,2/7/2021,1019591,MANHATTAN,106,242 EAST 19TH STREET,1,40.73542022705078,-73.98319244384766
123800093,NB,CS/SSC/SSM permit,2/12/2021,1019620,MANHATTAN,106,359 SECOND AVENUE,3,40.73657989501953,-73.98214721679688
123800431,DM,CS/SSC/SSM permit,4/14/2021,1019665,MANHATTAN,106,297 3RD AVENUE,1,40.738548278808594,-73.98294067382812
140884620,A2,CS/SSC/SSM permit,3/27/2021,1019731,MANHATTAN,106,235 E 22,1,40.737701416015625,-73.98190307617188
123861981,A2,CS/SSC/SSM permit,5/14/2021,1019821,MANHATTAN,106,201 EAST 25TH STREET,1,40.74020004272461,-73.98174285888672
123253905,A1,CS/SSC/SSM permit,1/4/2022,1019827,MANHATTAN,106,223 EAST 25TH STREET,1,40.73984146118164,-73.9809799194336
123739142,A2,CS/SSC/SSM permit,7/15/2021,1019864,MANHATTAN,106,200 EAST 27TH STREET,1,40.74089813232422,-73.98094177246094
123691503,A2,CS/SSC/SSM permit,1/31/2021,1019887,MANHATTAN,106,385 THIRD AVENUE,1,40.741600036621094,-73.98075103759766
123171227,A1,CS/SSC/SSM permit,2/2/2021,1019941,MANHATTAN,106,212 EAST 30 STREET,1,40.74271011352539,-73.9793930053711
103652174,A2,CS/SSC/SSM permit,7/15/2021,1020080,MANHATTAN,106,208 EAST 33RD ST,1,40.74443054199219,-73.9779281616211
122382331,DM,CS/SSC/SSM permit,1/17/2021,1020140,MANHATTAN,106,507 3 AVENUE,1,40.74583053588867,-73.97765350341797
121205640,NB,CS/SSC/SSM permit,4/1/2021,1020141,MANHATTAN,106,509 3RD AVENUE,2,40.74583053588867,-73.97765350341797
122091235,DM,CS/SSC/SSM permit,1/17/2021,1020144,MANHATTAN,106,209 EAST 34 STREET,1,40.74583053588867,-73.97765350341797
121206578,A1,CS/SSC/SSM permit,6/18/2021,1020166,MANHATTAN,106,214 EAST 35TH STREET,1,40.74591064453125,-73.9770736694336
123187791,A2,CS/SSC/SSM permit,7/1/2021,1020214,MANHATTAN,106,201 EAST 36TH STREET,1,40.7470588684082,-73.97675323486328
123702243,A2,CS/SSC/SSM permit,1/25/2021,1020339,MANHATTAN,106,245 EAST 37 STREET,1,40.74700927734375,-73.97461700439453
123531534,A2,CS/SSC/SSM permit,3/20/2021,1020402,MANHATTAN,106,333 EAST 14TH STREET,1,40.73191833496094,-73.9831771850586
121010636,A1,CS/SSC/SSM permit,2/27/2021,1020404,MANHATTAN,106,245 FIRST AVENUE,1,40.73175811767578,-73.9826431274414
123836938,A2,CS/SSC/SSM permit,4/18/2021,1020410,MANHATTAN,106,336 EAST 15TH STREET,1,40.73223876953125,-73.98314666748047
122233519,A1,CS/SSC/SSM permit,4/18/2021,1020410,MANHATTAN,106,336 EAST 15TH STREET,1,40.73223876953125,-73.98314666748047
123799915,A2,CS/SSC/SSM permit,4/1/2021,1020438,MANHATTAN,106,301 1ST AVENUE,1,40.73360061645508,-73.98143005371094
121186625,NB,CS/SSC/SSM permit,4/24/2021,1020571,MANHATTAN,106,327 EAST 22ND STREET,1,40.736839294433594,-73.97991180419922
123808843,A2,CS/SSC/SSM permit,3/25/2021,1020579,MANHATTAN,106,340 EAST 23 STREET,1,40.736961364746094,-73.97944641113281
123390339,A2,CS/SSC/SSM permit,3/1/2021,1020599,MANHATTAN,106,305 EAST 24TH STREET,1,40.73868179321289,-73.97976684570312
121206998,A1,CS/SSC/SSM permit,4/11/2021,1022557,MANHATTAN,106,24-50 FDR DRIVE,1,40.7363395690918,-73.97329711914062
123723541,A2,CS/SSC/SSM permit,5/31/2021,1022564,MANHATTAN,105,114 WEST 41ST STREET,1,40.75423049926758,-73.98573303222656
123843341,A2,CS/SSC/SSM permit,4/1/2021,1022678,MANHATTAN,105,1211 AVENUE OF THE AMERICAS,1,40.75865936279297,-73.9823989868164
140898811,A2,CS/SSC/SSM permit,3/1/2021,1022699,MANHATTAN,105,729 7 AVENUE,1,40.76013946533203,-73.98355102539062
123858227,A2,CS/SSC/SSM permit,4/1/2021,1022708,MANHATTAN,105,135 WEST 50 STREET,1,40.760948181152344,-73.98206329345703
123694957,A2,CS/SSC/SSM permit,11/13/2021,1022710,MANHATTAN,105,150 WEST 51ST STREET,1,40.761260986328125,-73.98258972167969
140935086,A2,CS/SSC/SSM permit,3/4/2021,1023383,MANHATTAN,105,136 WEST 55TH STREET,1,40.76346969604492,-73.97978210449219
123057538,NB,CS/SSC/SSM permit,1/31/2021,1023395,MANHATTAN,105,106 WEST 56TH STREET,1,40.76369094848633,-73.9783706665039
123827831,A2,CS/SSC/SSM permit,3/1/2021,1023398,MANHATTAN,105,112 WEST 56TH STREET,1,40.76377868652344,-73.97856903076172
123802251,A2,CS/SSC/SSM permit,5/15/2021,1023455,MANHATTAN,105,118 WEST 57 STREET,1,40.764259338378906,-73.97847747802734
121332968,A1,CS/SSC/SSM permit,1/10/2021,1023728,MANHATTAN,105,109 WEST 57 STREET,1,40.764949798583984,-73.97756958007812
123842128,A2,CS/SSC/SSM permit,1/15/2021,1023735,MANHATTAN,105,134 WEST 58TH STREET,1,40.76536178588867,-73.9781265258789
140924953,A2,CS/SSC/SSM permit,6/17/2021,1023755,MANHATTAN,105,100 CENTRAL PARK SOUTH,1,40.76554870605469,-73.97664642333984
123879829,A2,CS/SSC/SSM permit,11/1/2021,1024684,MANHATTAN,105,215 W 42 STREET,1,40.756690979003906,-73.98780059814453
140821975,A2,CS/SSC/SSM permit,4/1/2021,1024703,MANHATTAN,105,255 WEST 43 STREET,1,40.75788116455078,-73.98867797851562
140946190,A2,CS/SSC/SSM permit,11/9/2021,1024727,MANHATTAN,105,1535 BROADWAY,1,40.758628845214844,-73.98619842529297
123178541,A2,CS/SSC/SSM permit,3/25/2021,1024813,MANHATTAN,105,840 EIGHTH AVENUE,1,40.76253890991211,-73.98551940917969
140830992,A2,CS/SSC/SSM permit,12/1/2021,1024894,MANHATTAN,105,211 WEST 56TH STREET,1,40.76546859741211,-73.9814682006836
140891907,A2,CS/SSC/SSM permit,4/1/2021,1024899,MANHATTAN,105,250 WEST 57TH STREET,1,40.76628112792969,-73.98252868652344
122871197,A2,CS/SSC/SSM permit,4/29/2021,1024901,MANHATTAN,105,1776 BROADWAY,1,40.7663688659668,-73.98149108886719
123206075,A1,CS/SSC/SSM permit,3/21/2021,1024947,MANHATTAN,104,303 WEST 42ND STREET,1,40.757720947265625,-73.98988342285156
140891809,A2,CS/SSC/SSM permit,6/18/2021,1025089,MANHATTAN,104,343 WEST 47TH STREET,1,40.76137924194336,-73.98919677734375
123217991,A1,CS/SSC/SSM permit,12/1/2021,1025109,MANHATTAN,104,326 WEST 48 STREET,1,40.761329650878906,-73.98829650878906
140871938,A2,CS/SSC/SSM permit,3/1/2021,1025137,MANHATTAN,104,319 WEST 48TH STREET,1,40.761749267578125,-73.9879379272461
123572311,A2,CS/SSC/SSM permit,3/1/2021,1025183,MANHATTAN,104,350 WEST 51 STREET,1,40.763328552246094,-73.98750305175781
120945442,A1,CS/SSC/SSM permit,1/31/2021,1025426,MANHATTAN,104,337 WEST 55 STREET,1,40.76620101928711,-73.98509979248047
121107765,A2,CS/SSC/SSM permit,1/31/2021,1025426,MANHATTAN,104,337 WEST 55 STREET,1,40.76620101928711,-73.98509979248047
123443167,A2,CS/SSC/SSM permit,1/30/2021,1025450,MANHATTAN,104,322 WEST 57TH STREET,1,40.76683044433594,-73.98423767089844
120453268,A2,CS/SSC/SSM permit,11/13/2021,1026317,MANHATTAN,104,353 WEST 57TH STREET,1,40.76805877685547,-73.98499298095703
123874520,A2,CS/SSC/SSM permit,4/19/2021,1026676,MANHATTAN,104,425 WEST 50 STREET,1,40.76436996459961,-73.99014282226562
121979207,A1,CS/SSC/SSM permit,1/27/2021,1026707,MANHATTAN,104,448 WEST 51ST STREET,1,40.76472091674805,-73.99051666259766
104932343,A1,CS/SSC/SSM permit,1/31/2021,1026775,MANHATTAN,104,446 WEST   54 STREET,1,40.76662063598633,-73.98918914794922
140920047,A2,CS/SSC/SSM permit,7/5/2021,1026878,MANHATTAN,104,475 WEST 57TH STREET,1,40.76924133300781,-73.98815155029297
121145279,A1,CS/SSC/SSM permit,6/29/2021,1026890,MANHATTAN,104,408 WEST 58TH STREET,1,40.76860809326172,-73.9858627319336
121204302,NB,CS/SSC/SSM permit,5/13/2021,1026982,MANHATTAN,104,547 WEST 47 STREET,1,40.76409149169922,-73.99537658691406
121603504,A1,CS/SSC/SSM permit,12/1/2021,1027117,MANHATTAN,104,622 WEST . 47TH ST,1,40.76435852050781,-73.99732971191406
121289300,NB,CS/SSC/SSM permit,1/21/2021,1027119,MANHATTAN,104,607 WEST 47TH STREET,1,40.76451110839844,-73.99661254882812
120424406,A1,CS/SSC/SSM permit,10/2/2021,1027120,MANHATTAN,104,605 WEST 47TH STREET,1,40.76443862915039,-73.99645233154297
121184501,A1,CS/SSC/SSM permit,12/16/2021,1027125,MANHATTAN,104,660 12TH AVENUE,1,40.765480041503906,-73.99656677246094
123747570,DM,CS/SSC/SSM permit,4/3/2021,1027189,MANHATTAN,107,1841 BROADWAY,1,40.76932907104492,-73.9826431274414
123747589,DM,CS/SSC/SSM permit,4/3/2021,1027190,MANHATTAN,107,1845 BROADWAY,1,40.76932907104492,-73.9826431274414
123068544,A2,CS/SSC/SSM permit,3/1/2021,1027472,MANHATTAN,107,20 W 64 STREET,1,40.77151107788086,-73.98140716552734
123788133,A2,CS/SSC/SSM permit,9/1/2021,1028166,MANHATTAN,107,55 CENTRAL PARK WEST,1,40.77231979370117,-73.979248046875
121190200,NB,CS/SSC/SSM permit,4/30/2021,1028168,MANHATTAN,107,36 WEST 66TH STREET,1,40.77268981933594,-73.98002624511719
140919790,A2,CS/SSC/SSM permit,8/1/2021,1028260,MANHATTAN,107,45 WEST 67 STREET,1,40.77425003051758,-73.9805908203125
123188344,A2,CS/SSC/SSM permit,12/1/2021,1028474,MANHATTAN,107,50 WEST 69 STREET,1,40.774898529052734,-73.97942352294922
121817506,A1,CS/SSC/SSM permit,12/1/2021,1028474,MANHATTAN,107,50 WEST 69TH STREET,1,40.774898529052734,-73.97942352294922
123524953,A2,CS/SSC/SSM permit,5/14/2021,1028564,MANHATTAN,107,101 CENTRAL PARK WEST,1,40.775360107421875,-73.97705841064453
123747473,A2,CS/SSC/SSM permit,3/8/2021,1028620,MANHATTAN,107,20 WEST 72ND STREET,1,40.77653884887695,-73.97746276855469
123237032,A2,CS/SSC/SSM permit,3/3/2021,1028661,MANHATTAN,107,23 WEST 73 STREET,1,40.77769088745117,-73.97673034667969
122387595,A1,CS/SSC/SSM permit,11/12/2021,1028726,MANHATTAN,107,32 WEST 75 STREET,1,40.77861022949219,-73.97618865966797
121191806,A1,CS/SSC/SSM permit,1/31/2021,1028803,MANHATTAN,107,41 WEST 76TH STREET,1,40.77983093261719,-73.9759292602539
123798113,A2,CS/SSC/SSM permit,1/31/2021,1028827,MANHATTAN,107,124 WEST 60TH STREET,1,40.77009963989258,-73.9858627319336
140869415,A2,CS/SSC/SSM permit,3/17/2021,1028847,MANHATTAN,107,130 WEST 67TH STREET,1,40.774879455566406,-73.98323059082031
101574137,A1,CS/SSC/SSM permit,1/31/2021,1030104,MANHATTAN,107,107 WEST   74 STREET,1,40.77919006347656,-73.97831726074219
122605289,A1,CS/SSC/SSM permit,4/1/2021,1030173,MANHATTAN,107,163 WEST 76TH STREET,1,40.781070709228516,-73.97885131835938
123744617,A2,CS/SSC/SSM permit,1/1/2022,1030234,MANHATTAN,107,173 WEST 78 STREET,1,40.78253936767578,-73.97840881347656
123872773,A2,CS/SSC/SSM permit,3/1/2021,1030339,MANHATTAN,107,110 WEST END AVENUE,1,40.77484130859375,-73.9875717163086
140888877,A2,CS/SSC/SSM permit,5/11/2021,1030340,MANHATTAN,107,240 WEST 65 STREET,1,40.774658203125,-73.98700714111328
140750033,A2,CS/SSC/SSM permit,4/9/2021,1030342,MANHATTAN,107,128 WEST END AVENUE,1,40.775428771972656,-73.98689270019531
123530214,A2,CS/SSC/SSM permit,4/9/2021,1030342,MANHATTAN,107,128 WEST END AVENUE,1,40.775428771972656,-73.98689270019531
123214896,A2,CS/SSC/SSM permit,4/9/2021,1030342,MANHATTAN,107,128 WEST END AVENUE,1,40.775428771972656,-73.98689270019531
140726481,A2,CS/SSC/SSM permit,4/9/2021,1030342,MANHATTAN,107,128 WEST END AVENUE,1,40.775428771972656,-73.98689270019531
123587877,A2,CS/SSC/SSM permit,4/9/2021,1030342,MANHATTAN,107,128 WEST END AVENUE,1,40.775428771972656,-73.98689270019531
123021684,A1,CS/SSC/SSM permit,7/30/2021,1030383,MANHATTAN,107,248 W 71 ST,1,40.77851104736328,-73.98410034179688
123721687,A1,CS/SSC/SSM permit,3/13/2021,1030384,MANHATTAN,107,252 WEST 71 STREET,1,40.778568267822266,-73.9842300415039
123851732,A2,CS/SSC/SSM permit,3/14/2021,1030390,MANHATTAN,107,240 WEST END AVENUE,1,40.77885818481445,-73.9848403930664
123228257,A1,CS/SSC/SSM permit,11/1/2021,1030399,MANHATTAN,107,250 WEST 71ST STREET,1,40.778541564941406,-73.98416137695312
121204516,NB,CS/SSC/SSM permit,3/25/2021,1030422,MANHATTAN,107,214 WEST 72ND STREET,1,40.778751373291016,-73.98271179199219
122441027,A1,CS/SSC/SSM permit,8/8/2021,1030529,MANHATTAN,107,260 WEST 73RD STREET,1,40.77994155883789,-73.9832763671875
122779733,A1,CS/SSC/SSM permit,1/31/2021,1030538,MANHATTAN,107,270 WEST 73 STREET,1,40.780059814453125,-73.98355865478516
123581481,A2,CS/SSC/SSM permit,1/31/2021,1030544,MANHATTAN,107,2109 BROADWAY,1,40.7801399230957,-73.98222351074219
120794998,A1,CS/SSC/SSM permit,1/29/2021,1030729,MANHATTAN,107,228 WEST 75TH STREET,1,40.78104019165039,-73.9819564819336
120797003,A1,CS/SSC/SSM permit,1/29/2021,1030737,MANHATTAN,107,230 WEST 75TH STREET,1,40.781070709228516,-73.98200988769531
123543068,A2,CS/SSC/SSM permit,10/1/2021,1030838,MANHATTAN,107,241 WEST 75TH STREET,1,40.781558990478516,-73.98200225830078
123497769,A1,CS/SSC/SSM permit,10/1/2021,1030838,MANHATTAN,107,241 WEST 75TH STREET,1,40.781558990478516,-73.98200225830078
123595369,A2,CS/SSC/SSM permit,10/1/2021,1030838,MANHATTAN,107,241 WEST 75TH STREET,1,40.781558990478516,-73.98200225830078
123880746,A2,CS/SSC/SSM permit,2/20/2021,1030839,MANHATTAN,107,215 WEST 75TH STREET,1,40.78105163574219,-73.98081970214844
140711549,A2,CS/SSC/SSM permit,3/12/2021,1030881,MANHATTAN,107,233 WEST 77TH STREET,1,40.782840728759766,-73.98111724853516
122454370,A1,CS/SSC/SSM permit,1/31/2021,1030919,MANHATTAN,107,225 WEST 78TH STREET,1,40.783111572265625,-73.9797592163086
140930982,A2,CS/SSC/SSM permit,8/1/2021,1030969,MANHATTAN,107,322 WEST 72 STREET,1,40.77996826171875,-73.98560333251953
123672212,A1,CS/SSC/SSM permit,11/13/2021,1030978,MANHATTAN,107,307 WEST 71ST STREET,1,40.7795295715332,-73.9853515625
123301952,A1,CS/SSC/SSM permit,2/1/2021,1030981,MANHATTAN,107,3 RIVERSIDE DRIVE,1,40.78057861328125,-73.98519134521484
140928913,A2,CS/SSC/SSM permit,8/1/2021,1030994,MANHATTAN,107,11 RIVERSIDE DRIVE,1,40.78112030029297,-73.9844970703125
122916489,A1,CS/SSC/SSM permit,3/14/2021,1031039,MANHATTAN,107,36 RIVERSIDE DRIVE,1,40.78279113769531,-73.98432159423828
122732800,A1,CS/SSC/SSM permit,6/29/2021,1031064,MANHATTAN,107,347 WEST END AVE,1,40.782798767089844,-73.98269653320312
122685362,A1,CS/SSC/SSM permit,3/9/2021,1031081,MANHATTAN,107,326 WEST 77 STREET,1,40.78329849243164,-73.98338317871094
123853339,A2,CS/SSC/SSM permit,1/19/2021,1031141,MANHATTAN,107,7 WEST 81ST STREET,1,40.7825813293457,-73.97191619873047
123787376,A2,CS/SSC/SSM permit,4/19/2021,1031232,MANHATTAN,107,230 CENTRAL PARK WEST,1,40.783668518066406,-73.97093963623047
123561966,A2,CS/SSC/SSM permit,10/1/2021,1031300,MANHATTAN,107,35 WEST 84TH STREET,1,40.7849006652832,-73.97189331054688
123877242,A2,CS/SSC/SSM permit,1/31/2021,1031384,MANHATTAN,107,40 WEST 86TH STREET,1,40.7859001159668,-73.97151947021484
123783904,A2,CS/SSC/SSM permit,3/13/2021,1031405,MANHATTAN,107,21 WEST 86TH STREET,1,40.7859992980957,-73.97028350830078
123489821,A1,CS/SSC/SSM permit,8/15/2021,1031451,MANHATTAN,107,43 WEST 87TH STREET,1,40.78691101074219,-73.97049713134766
120045138,A1,CS/SSC/SSM permit,3/2/2021,1031515,MANHATTAN,107,18 WEST 89TH STREET,1,40.7872314453125,-73.96888732910156
123274232,A2,CS/SSC/SSM permit,3/2/2021,1031515,MANHATTAN,107,21 WEST 88TH STREET,1,40.7872314453125,-73.96888732910156
123875556,A2,CS/SSC/SSM permit,5/13/2021,1031568,MANHATTAN,107,293 CENTRAL PARK WEST,1,40.787601470947266,-73.9680404663086
140881295,A2,CS/SSC/SSM permit,7/19/2021,1031623,MANHATTAN,107,74 WEST 92 STREET,1,40.78982925415039,-73.96926879882812
123874539,A2,CS/SSC/SSM permit,5/2/2021,1031636,MANHATTAN,107,322 CENTRAL PARK WEST,1,40.78940963745117,-73.96678924560547
121188213,A1,CS/SSC/SSM permit,1/1/2022,1031667,MANHATTAN,107,47 WEST 94TH STREET,1,40.791168212890625,-73.96697235107422
122817176,A1,CS/SSC/SSM permit,8/7/2021,1031678,MANHATTAN,107,15 WEST 94 STREET,1,40.790809631347656,-73.96613311767578
121191030,A1,CS/SSC/SSM permit,1/31/2021,1031693,MANHATTAN,107,44 WEST 95 STREET,1,40.79148864746094,-73.96695709228516
123744458,A2,CS/SSC/SSM permit,6/29/2021,1031724,MANHATTAN,107,353 CENTRAL PARK WEST,1,40.791229248046875,-73.96530151367188
123466524,A2,CS/SSC/SSM permit,3/20/2021,1031728,MANHATTAN,107,360 CENTRAL PARK WEST,1,40.79148864746094,-73.96526336669922
123875832,A2,CS/SSC/SSM permit,7/19/2021,1031729,MANHATTAN,107,12 WEST 96TH STREET,1,40.79169845581055,-73.96549224853516
122957354,A2,CS/SSC/SSM permit,3/17/2021,1031752,MANHATTAN,107,175 WEST 79 STREET,1,40.78321838378906,-73.97783660888672
121206943,A1,CS/SSC/SSM permit,12/7/2021,1031763,MANHATTAN,107,117 WEST 79TH STREET,1,40.782440185546875,-73.9759292602539
122042306,A1,CS/SSC/SSM permit,1/1/2022,1031993,MANHATTAN,107,140 WEST 81ST STREET,1,40.783748626708984,-73.97625732421875
140957105,A2,CS/SSC/SSM permit,5/20/2021,1032008,MANHATTAN,107,164 WEST 81 STREET,1,40.78390121459961,-73.97662353515625
123797926,A1,CS/SSC/SSM permit,5/20/2021,1032008,MANHATTAN,107,164 WEST 81 STREET,1,40.78390121459961,-73.97662353515625
121189016,A1,CS/SSC/SSM permit,11/12/2021,1032037,MANHATTAN,107,150 WEST 82ND STREET,1,40.784488677978516,-73.9760513305664
121190255,NB,CS/SSC/SSM permit,6/1/2021,1032071,MANHATTAN,107,468 COLUMBUS AVENUE,3,40.784339904785156,-73.97413635253906
121207327,A1,CS/SSC/SSM permit,9/28/2021,1032093,MANHATTAN,107,123 WEST 82ND STREET,1,40.78459930419922,-73.9751205444336
121189971,A1,CS/SSC/SSM permit,8/10/2021,1032241,MANHATTAN,107,125 WEST 87TH STREET,1,40.78770065307617,-73.9723892211914
122783979,A2,CS/SSC/SSM permit,3/15/2021,1032282,MANHATTAN,107,160 WEST 88 STREET,1,40.7883415222168,-73.97310638427734
123361913,A1,CS/SSC/SSM permit,6/29/2021,1032517,MANHATTAN,107,146 WEST 92ND STREET,1,40.79087829589844,-73.97135925292969
123104185,A2,CS/SSC/SSM permit,6/29/2021,1032517,MANHATTAN,107,146 WEST 92 STREET,1,40.79087829589844,-73.97135925292969
121333681,A1,CS/SSC/SSM permit,1/31/2021,1032579,MANHATTAN,107,130 WEST 95 STREET,1,40.79249954223633,-73.9693374633789
123109340,A2,CS/SSC/SSM permit,3/21/2021,1032622,MANHATTAN,107,400 WEST END AVENUE,1,40.78443908691406,-73.98065185546875
123012202,A2,CS/SSC/SSM permit,3/1/2021,1032698,MANHATTAN,107,450 WEST END AVE,1,40.78596878051758,-73.97956848144531
140921448,A2,CS/SSC/SSM permit,3/23/2021,1033294,MANHATTAN,107,205 WEST 88TH STREET,1,40.789329528808594,-73.97429656982422
123558051,NB,CS/SSC/SSM permit,6/29/2021,1033645,MANHATTAN,107,2505 BROADWAY,3,40.79310989379883,-73.97342681884766
122395443,A1,CS/SSC/SSM permit,2/1/2021,1033683,MANHATTAN,107,2528 BROADWAY,1,40.7934684753418,-73.97206115722656
121207014,NB,CS/SSC/SSM permit,11/18/2021,1033708,MANHATTAN,107,2555 BROADWAY,3,40.79460144042969,-73.9723892211914
123685128,A1,CS/SSC/SSM permit,5/20/2021,1033853,MANHATTAN,107,319 WEST 84TH STREET,1,40.78810119628906,-73.97949981689453
123573793,A2,CS/SSC/SSM permit,7/19/2021,1033933,MANHATTAN,107,140 RIVERSIDE DRIVE,1,40.7901611328125,-73.979736328125
140866212,A2,CS/SSC/SSM permit,2/1/2021,1033936,MANHATTAN,107,333 WEST 86TH STREET,1,40.78974151611328,-73.97917938232422
122214308,A1,CS/SSC/SSM permit,3/8/2021,1033981,MANHATTAN,107,316 WEST 88 STREET,1,40.79039001464844,-73.97794342041016
123025118,A1,CS/SSC/SSM permit,1/1/2022,1033982,MANHATTAN,107,318 WEST 88 STREET,1,40.790409088134766,-73.97799682617188
140964482,A2,CS/SSC/SSM permit,2/24/2021,1034092,MANHATTAN,107,186 RIVERSIDE DRIVE,1,40.792388916015625,-73.97682189941406
140358333,A2,CS/SSC/SSM permit,2/4/2021,1034123,MANHATTAN,107,675 WEST END AVENUE,1,40.79317092895508,-73.97514343261719
103646501,A2,CS/SSC/SSM permit,5/31/2021,1034190,MANHATTAN,107,735 WEST END AVENUE,1,40.795108795166016,-73.9739990234375
123760206,A2,CS/SSC/SSM permit,11/1/2021,1034194,MANHATTAN,105,476 FIFTH AVENUE,1,40.75320053100586,-73.98226928710938
140898526,A2,CS/SSC/SSM permit,6/15/2021,1034228,MANHATTAN,105,2 WEST 45TH STREET,1,40.755470275878906,-73.98021697998047
123396280,A2,CS/SSC/SSM permit,1/31/2021,1034249,MANHATTAN,105,15 WEST 45TH STREET,1,40.755950927734375,-73.98018646240234
123746223,DM,CS/SSC/SSM permit,4/3/2021,1034336,MANHATTAN,105,572 5TH AVENUE,1,40.756500244140625,-73.97908782958984
122030881,DM,CS/SSC/SSM permit,4/3/2021,1034337,MANHATTAN,105,574 5TH AVENUE,1,40.756568908691406,-73.97904205322266
123308875,A2,CS/SSC/SSM permit,1/31/2021,1034345,MANHATTAN,105,36 WEST 47TH STREET,1,40.7571907043457,-73.98042297363281
123454519,A2,CS/SSC/SSM permit,1/15/2021,1034506,MANHATTAN,105,600 FIFTH AVENUE,1,40.7576789855957,-73.97844696044922
123909477,A2,CS/SSC/SSM permit,5/15/2021,1034512,MANHATTAN,105,75 ROCKEFELLER PLAZA,1,40.76005172729492,-73.97770690917969
140886968,A2,CS/SSC/SSM permit,8/3/2021,1034516,MANHATTAN,105,640 FIFTH AVENUE,1,40.75954055786133,-73.97699737548828
123346003,A2,CS/SSC/SSM permit,11/1/2021,1034520,MANHATTAN,105,666 FIFTH AVENUE,1,40.76036834716797,-73.9767074584961
140929477,A2,CS/SSC/SSM permit,3/1/2021,1034815,MANHATTAN,105,1350 AVENUE OF THE AMERICAS,1,40.762569427490234,-73.977783203125
123843369,A2,CS/SSC/SSM permit,6/25/2021,1035051,MANHATTAN,105,720 FIFTH AVENUE,1,40.76259994506836,-73.9747314453125
140897545,A2,CS/SSC/SSM permit,4/28/2021,1035053,MANHATTAN,105,730 5TH AVENUE,1,40.76285934448242,-73.97471618652344
121191325,A1,CS/SSC/SSM permit,4/9/2021,1035053,MANHATTAN,105,730 5TH AVENUE,1,40.76285934448242,-73.97471618652344
123710984,A2,CS/SSC/SSM permit,8/1/2021,1035057,MANHATTAN,105,40 WEST 57 STREET,1,40.7635498046875,-73.97635650634766
123868387,DM,CS/SSC/SSM permit,7/1/2021,1035063,MANHATTAN,105,45 WEST 57TH STREET,1,40.764259338378906,-73.97633361816406
123675665,DM,CS/SSC/SSM permit,7/1/2021,1035064,MANHATTAN,105,43 WEST 57TH STREET,1,40.76420974731445,-73.9761962890625
123675656,DM,CS/SSC/SSM permit,7/1/2021,1035065,MANHATTAN,105,41 WEST 57TH STREET,1,40.76416015625,-73.9760971069336
123720893,A2,CS/SSC/SSM permit,10/23/2021,1035078,MANHATTAN,105,58 WEST 58 STREET,1,40.764461517333984,-73.97634887695312
140873614,A2,CS/SSC/SSM permit,3/27/2021,1035347,MANHATTAN,105,6 EAST 43RD STREET,1,40.753509521484375,-73.97979736328125
123056110,A2,CS/SSC/SSM permit,3/1/2021,1035369,MANHATTAN,105,11 EAST 44TH STREET,1,40.75458908081055,-73.97889709472656
123847310,A2,CS/SSC/SSM permit,6/1/2021,1035395,MANHATTAN,105,20 EAST 46TH STREET,1,40.755340576171875,-73.97796630859375
123656640,DM,CS/SSC/SSM permit,7/1/2021,1035421,MANHATTAN,105,270 PARK AVENUE,1,40.7559814453125,-73.97599029541016
121189285,A2,CS/SSC/SSM permit,7/1/2021,1035421,MANHATTAN,105,270 PARK AVENUE,1,40.7559814453125,-73.97599029541016
121207087,A2,CS/SSC/SSM permit,6/9/2021,1035421,MANHATTAN,105,270 PARK AVENUE,2,40.7559814453125,-73.97599029541016
140939992,A2,CS/SSC/SSM permit,10/1/2021,1035421,MANHATTAN,105,270 PARK AVENUE,1,40.7559814453125,-73.97599029541016
140709632,A2,CS/SSC/SSM permit,1/31/2021,1035438,MANHATTAN,105,420 MADISON AVENUE,1,40.75701141357422,-73.97654724121094
122714697,A1,CS/SSC/SSM permit,7/27/2021,1035737,MANHATTAN,105,685 5TH AVENUE,1,40.76076126098633,-73.97512817382812
123691166,A2,CS/SSC/SSM permit,3/18/2021,1035770,MANHATTAN,105,551 MADISON AVENUE,1,40.76102066040039,-73.9729232788086
123426907,A2,CS/SSC/SSM permit,3/27/2021,1035775,MANHATTAN,105,555 MADISON AVENUE,1,40.76118087768555,-73.9726791381836
123701896,A2,CS/SSC/SSM permit,1/15/2021,1036145,MANHATTAN,105,360 LEXINGTON AVENUE,1,40.75046920776367,-73.9771728515625
123754491,A2,CS/SSC/SSM permit,1/1/2022,1036185,MANHATTAN,105,230 PARK AVENUE,1,40.754390716552734,-73.9760971069336
140931277,A2,CS/SSC/SSM permit,10/8/2021,1036206,MANHATTAN,106,485 LEXINGTON AVENUE,1,40.75408172607422,-73.9734878540039
123711625,A2,CS/SSC/SSM permit,9/27/2021,1036208,MANHATTAN,106,501 LEXINGTON AVENUE,1,40.754730224609375,-73.97337341308594
123780694,A2,CS/SSC/SSM permit,1/31/2021,1036451,MANHATTAN,105,560 LEXINGTON AVENUE,1,40.756858825683594,-73.97264099121094
123802938,A2,CS/SSC/SSM permit,4/1/2021,1036509,MANHATTAN,105,123 EAST 55TH STREET,1,40.76007080078125,-73.97055053710938
123847481,A2,CS/SSC/SSM permit,5/31/2021,1036882,MANHATTAN,106,950 3RD AVENUE,1,40.76020050048828,-73.96808624267578
140908597,A2,CS/SSC/SSM permit,2/17/2021,1036888,MANHATTAN,106,695 LEXINGTON AVENUE,1,40.76063919067383,-73.96898651123047
140901950,A2,CS/SSC/SSM permit,8/9/2021,1036915,MANHATTAN,106,150 EAST 58TH STREET,1,40.76103973388672,-73.96793365478516
121526660,A2,CS/SSC/SSM permit,5/7/2021,1037579,MANHATTAN,106,216 EAST 45 STREET,1,40.752079010009766,-73.97218322753906
122636317,A1,CS/SSC/SSM permit,3/31/2021,1038012,MANHATTAN,106,241 EAST 48TH STREET,1,40.75413131713867,-73.97004699707031
122921393,A1,CS/SSC/SSM permit,2/11/2021,1038231,MANHATTAN,106,245 EAST 49 STREET,1,40.75468826293945,-73.96945190429688
123901527,A2,CS/SSC/SSM permit,3/25/2021,1038254,MANHATTAN,106,255 EAST 49TH STREET,1,40.75463104248047,-73.96906280517578
123812525,A2,CS/SSC/SSM permit,9/1/2021,1038468,MANHATTAN,106,231 EAST 51ST STREET,1,40.75608825683594,-73.96887969970703
123845349,A2,CS/SSC/SSM permit,9/1/2021,1038468,MANHATTAN,106,231 EAST 51ST STREET,1,40.75608825683594,-73.96887969970703
123372037,NB,CS/SSC/SSM permit,9/21/2021,1038477,MANHATTAN,106,244 EAST 52ND STREET,3,40.756168365478516,-73.96829986572266
123883182,A2,CS/SSC/SSM permit,1/31/2021,1038491,MANHATTAN,106,224 EAST 52 STREET,1,40.75642013549805,-73.96888732910156
140945468,A2,CS/SSC/SSM permit,8/9/2021,1038570,MANHATTAN,106,909 THIRD AVENUE,1,40.75830078125,-73.96790313720703
123921934,A2,CS/SSC/SSM permit,1/30/2021,1038578,MANHATTAN,106,235 EAST 55TH STREET,1,40.75856018066406,-73.96695709228516
123840549,A2,CS/SSC/SSM permit,3/8/2021,1038594,MANHATTAN,106,220 EAST 57TH STREET,1,40.75962829589844,-73.966796875
123793895,A2,CS/SSC/SSM permit,4/1/2021,1038905,MANHATTAN,106,301 EAST 47TH STREET,1,40.75318145751953,-73.9693603515625
123672436,A2,CS/SSC/SSM permit,3/4/2021,1038920,MANHATTAN,106,865 FIRST AVENUE,1,40.7530403137207,-73.96717071533203
121567072,A1,CS/SSC/SSM permit,7/28/2021,1039615,MANHATTAN,106,352 E. 51TH STREET,1,40.75453186035156,-73.96636199951172
140875097,A2,CS/SSC/SSM permit,6/3/2021,1039660,MANHATTAN,106,351 EAST 51 STREET,1,40.754859924316406,-73.96588897705078
122874130,A1,CS/SSC/SSM permit,4/18/2021,1039669,MANHATTAN,106,308 EAST 52ND STREET,1,40.755680084228516,-73.96711730957031
122770180,A1,CS/SSC/SSM permit,6/21/2021,1039832,MANHATTAN,106,323 EAST 53 STREET,1,40.756500244140625,-73.96595764160156
123485861,A2,CS/SSC/SSM permit,2/5/2021,1039942,MANHATTAN,106,311 EAST 54TH STREET,2,40.75733947753906,-73.96601104736328
123747561,DM,CS/SSC/SSM permit,6/26/2021,1039949,MANHATTAN,106,347 EAST 54TH STREET,1,40.75680923461914,-73.96475982666016
123690853,A2,CS/SSC/SSM permit,5/15/2021,1039984,MANHATTAN,106,333 EAST 56 STREET,1,40.75823974609375,-73.96415710449219
140868568,A2,CS/SSC/SSM permit,7/18/2021,1039988,MANHATTAN,106,340 EAST 57TH STREET,1,40.75852966308594,-73.96407318115234
122841620,A2,CS/SSC/SSM permit,5/15/2021,1039997,MANHATTAN,106,303 E 57 ST,1,40.75947952270508,-73.96460723876953
123911133,A2,CS/SSC/SSM permit,6/2/2021,1040003,MANHATTAN,106,345 EAST 57TH STREET,1,40.75876998901367,-73.96328735351562
123859725,A2,CS/SSC/SSM permit,1/27/2021,1040031,MANHATTAN,106,300 EAST 59 STREET,1,40.760169982910156,-73.9642333984375
140967201,A2,CS/SSC/SSM permit,3/28/2021,1040067,MANHATTAN,106,353 EAST 58TH STREET,1,40.759361267089844,-73.96273040771484
121374244,A2,CS/SSC/SSM permit,5/2/2021,1040155,MANHATTAN,106,435 EAST 52ND STREET,1,40.754638671875,-73.9631118774414
140932230,A2,CS/SSC/SSM permit,5/31/2021,1040162,MANHATTAN,106,411 EAST 53 STREET,1,40.755760192871094,-73.9642333984375
122765953,A2,CS/SSC/SSM permit,3/1/2021,1040356,MANHATTAN,106,415 EAST 54 STREET,1,40.75614929199219,-73.9630126953125
123804570,A2,CS/SSC/SSM permit,3/8/2021,1040474,MANHATTAN,106,410 EAST 57TH STREET,1,40.757808685302734,-73.96247100830078
122972319,A2,CS/SSC/SSM permit,5/24/2021,1040541,MANHATTAN,106,447 EAST 57 STREET,1,40.757911682128906,-73.96124267578125
123485308,A1,CS/SSC/SSM permit,5/16/2021,1040741,MANHATTAN,106,4 RIVERVIEW TERRACE,1,40.75802993774414,-73.95951843261719
140944655,A2,CS/SSC/SSM permit,5/31/2021,1040765,MANHATTAN,108,785 FIFTH AVENUE,1,40.764549255371094,-73.97235870361328
123496412,A2,CS/SSC/SSM permit,7/21/2021,1040809,MANHATTAN,108,2 EAST 61ST STREET,1,40.76509094238281,-73.9716796875
140974097,A2,CS/SSC/SSM permit,7/15/2021,1040811,MANHATTAN,108,40 EAST 61ST STREET,1,40.764320373535156,-73.9698486328125
120870156,A1,CS/SSC/SSM permit,10/22/2021,1040852,MANHATTAN,108,27 EAST 61ST STREET,1,40.76485061645508,-73.96994018554688
123735805,A2,CS/SSC/SSM permit,3/13/2021,1041036,MANHATTAN,108,580 PARK AVENUE,1,40.765869140625,-73.96808624267578
122082003,A1,CS/SSC/SSM permit,5/3/2021,1041054,MANHATTAN,108,4 EAST 64TH STREET,1,40.76694869995117,-73.97026062011719
123834084,A2,CS/SSC/SSM permit,5/10/2021,1041107,MANHATTAN,108,46 EAST 65 ST,1,40.76681900024414,-73.96803283691406
122399289,A1,CS/SSC/SSM permit,2/24/2021,1041141,MANHATTAN,108,56 E 66 ST,1,40.76744842529297,-73.96756744384766
110459584,A1,CS/SSC/SSM permit,1/16/2021,1041189,MANHATTAN,108,14 EAST 67TH STREET,1,40.76865005493164,-73.9684829711914
123704385,A2,CS/SSC/SSM permit,1/31/2021,1041199,MANHATTAN,108,857 5TH AVENUE,1,40.769248962402344,-73.96894836425781
121593436,A2,CS/SSC/SSM permit,4/15/2021,1041203,MANHATTAN,108,11 EAST 67TH ST,1,40.76906967163086,-73.96829223632812
120487393,A1,CS/SSC/SSM permit,4/15/2021,1041203,MANHATTAN,108,11 EAST 67TH STREET,1,40.76906967163086,-73.96829223632812
140832650,A2,CS/SSC/SSM permit,1/31/2021,1041209,MANHATTAN,108,25 EAST 67 STREET,1,40.76885986328125,-73.96778869628906
121205588,A1,CS/SSC/SSM permit,2/1/2021,1041217,MANHATTAN,108,39 EAST 67TH STREET,1,40.76847839355469,-73.96690368652344
122121569,A1,CS/SSC/SSM permit,1/20/2021,1041232,MANHATTAN,108,36 EAST 68 STREET,1,40.76877975463867,-73.96685028076172
123578404,A2,CS/SSC/SSM permit,6/3/2021,1041237,MANHATTAN,108,20 EAST 68 STREET,1,40.76914978027344,-73.96771240234375
120973991,A1,CS/SSC/SSM permit,1/31/2021,1041238,MANHATTAN,108,18 EAST 68TH STREET,1,40.769229888916016,-73.96793365478516
103122256,A1,CS/SSC/SSM permit,1/20/2021,1041243,MANHATTAN,108,858 FIFTH AVENUE,1,40.76947021484375,-73.96871948242188
123790344,A2,CS/SSC/SSM permit,1/1/2022,1041264,MANHATTAN,108,49 EAST 68TH STREET,1,40.76897048950195,-73.96613311767578
123551593,A2,CS/SSC/SSM permit,1/17/2021,1041266,MANHATTAN,108,684 PARK AVENUE,1,40.7689208984375,-73.96589660644531
123254691,A1,CS/SSC/SSM permit,1/22/2021,1041269,MANHATTAN,108,50 EAST 69TH STREET,1,40.76919937133789,-73.9659194946289
123126937,A2,CS/SSC/SSM permit,7/28/2021,1041317,MANHATTAN,108,28 EAST 70TH STREET,1,40.77022933959961,-73.96620178222656
123131217,A2,CS/SSC/SSM permit,1/26/2021,1041329,MANHATTAN,108,41 EAST 70TH STREET,1,40.770389556884766,-73.96560668945312
123131226,A1,CS/SSC/SSM permit,1/27/2021,1041329,MANHATTAN,108,41 EAST 70TH STREET,1,40.770389556884766,-73.96560668945312
123579813,A2,CS/SSC/SSM permit,3/1/2021,1041364,MANHATTAN,108,750 PARK AVENUE,1,40.77098083496094,-73.96430969238281
140975443,A2,CS/SSC/SSM permit,7/3/2021,1041509,MANHATTAN,108,36 EAST 74TH STREET,1,40.772640228271484,-73.96398162841797
123751911,A2,CS/SSC/SSM permit,7/1/2021,1041681,MANHATTAN,108,23 EAST 74TH STREET,1,40.773460388183594,-73.96472930908203
122620422,A1,CS/SSC/SSM permit,6/29/2021,1041687,MANHATTAN,108,9 EAST 75TH STREET,1,40.77421951293945,-73.9645767211914
123405458,A2,CS/SSC/SSM permit,1/31/2021,1041695,MANHATTAN,108,35 EAST 75TH STREET,1,40.77381896972656,-73.96353149414062
122433768,A2,CS/SSC/SSM permit,11/11/2021,1041797,MANHATTAN,108,35 EAST 76TH STREET,1,40.77437973022461,-73.9629898071289
140912029,A2,CS/SSC/SSM permit,3/1/2021,1041816,MANHATTAN,108,3 EAST 77TH STREET,1,40.77568054199219,-73.96410369873047
123737830,A2,CS/SSC/SSM permit,1/29/2021,1041842,MANHATTAN,108,16 EAST 78TH STREET,1,40.77573013305664,-73.96343231201172
122620235,A1,CS/SSC/SSM permit,4/1/2021,1041875,MANHATTAN,108,890 PARK AVENUE,1,40.775428771972656,-73.96105194091797
140954876,A2,CS/SSC/SSM permit,3/27/2021,1041877,MANHATTAN,108,74 EAST 79TH STREET,1,40.775611877441406,-73.961181640625
140940944,A3,CS/SSC/SSM permit,3/8/2021,1041933,MANHATTAN,108,164 EAST 61ST STREET,1,40.76288986206055,-73.9664535522461
140940953,A3,CS/SSC/SSM permit,3/8/2021,1041934,MANHATTAN,108,162 EAST 61ST STREET,1,40.762908935546875,-73.96650695800781
140909364,A2,CS/SSC/SSM permit,1/31/2021,1042055,MANHATTAN,108,140 EAST 63RD STREET,1,40.764400482177734,-73.96620178222656
123758004,A1,CS/SSC/SSM permit,11/1/2021,1042065,MANHATTAN,108,161 EAST 62ND STREET,1,40.763938903808594,-73.96585845947266
123742325,A2,CS/SSC/SSM permit,6/24/2021,1042094,MANHATTAN,108,143 EAST 63RD STREET,1,40.764739990234375,-73.96578216552734
123131397,A1,CS/SSC/SSM permit,1/31/2021,1042122,MANHATTAN,108,118 EAST 64TH STREET,1,40.76552963256836,-73.96690368652344
123742334,A2,CS/SSC/SSM permit,6/24/2021,1042125,MANHATTAN,108,141 EAST 63RD STREET,1,40.76475143432617,-73.9658203125
123451442,A1,CS/SSC/SSM permit,6/24/2021,1042125,MANHATTAN,108,141 EAST 63RD STREET,1,40.76475143432617,-73.9658203125
122403247,A1,CS/SSC/SSM permit,9/4/2021,1042350,MANHATTAN,108,117 EAST 64TH STREET,1,40.76593017578125,-73.96666717529297
123499348,A2,CS/SSC/SSM permit,1/30/2021,1042369,MANHATTAN,108,160 EAST 65TH STREET,1,40.76512908935547,-73.96439361572266
140963697,A2,CS/SSC/SSM permit,4/12/2021,1042373,MANHATTAN,108,146 EAST 65 STREET,1,40.76544952392578,-73.96478271484375
123476452,A1,CS/SSC/SSM permit,4/21/2021,1042373,MANHATTAN,108,146 EAST 65 STREET,1,40.76544952392578,-73.96478271484375
123706007,A2,CS/SSC/SSM permit,1/31/2021,1042448,MANHATTAN,108,635 PARK AVENUE,1,40.766990661621094,-73.96637725830078
123184963,A1,CS/SSC/SSM permit,4/30/2021,1042526,MANHATTAN,108,160 EAST 70TH STREET,1,40.76866912841797,-73.96270751953125
121189178,A1,CS/SSC/SSM permit,3/14/2021,1042753,MANHATTAN,108,132 EAST 71ST STREET,1,40.76972961425781,-73.9632568359375
122831935,A1,CS/SSC/SSM permit,1/1/2022,1042766,MANHATTAN,108,152 EAST 71ST STREET,1,40.76934051513672,-73.96234893798828
123489242,A2,CS/SSC/SSM permit,11/13/2021,1042771,MANHATTAN,108,110 EAST 71 STREET,1,40.769989013671875,-73.96389770507812
121810139,A1,CS/SSC/SSM permit,1/31/2021,1042804,MANHATTAN,108,127 EAST 71ST STREET,1,40.77016067504883,-73.9631118774414
123506385,A2,CS/SSC/SSM permit,5/14/2021,1042823,MANHATTAN,108,160 EAST 72ND STREET,1,40.769989013671875,-73.96192932128906
140941480,A2,CS/SSC/SSM permit,3/20/2021,1043025,MANHATTAN,108,785 PARK AVENUE,1,40.771820068359375,-73.96282196044922
121330327,A1,CS/SSC/SSM permit,10/2/2021,1043061,MANHATTAN,108,134 EAST 74TH STREET,1,40.7717399597168,-73.96170806884766
123753991,A2,CS/SSC/SSM permit,3/25/2021,1043149,MANHATTAN,108,177 EAST 75TH STREET,1,40.772029876708984,-73.95938873291016
123374767,A1,CS/SSC/SSM permit,10/17/2021,1043211,MANHATTAN,108,138 EAST 78TH STREET,1,40.7741584777832,-73.95970916748047
123692762,A1,CS/SSC/SSM permit,9/6/2021,1043220,MANHATTAN,108,106 EAST 78 STREET,1,40.77452850341797,-73.96058654785156
123726959,A2,CS/SSC/SSM permit,10/5/2021,1043221,MANHATTAN,108,875 PARK AVENUE,1,40.77455139160156,-73.96083068847656
123069909,A1,CS/SSC/SSM permit,4/1/2021,1043223,MANHATTAN,108,1105 LEXINGTON AVENUE,1,40.773738861083984,-73.95950317382812
120667251,A1,CS/SSC/SSM permit,11/1/2021,1043228,MANHATTAN,108,116 EAST 78TH STREET,1,40.774410247802734,-73.96031188964844
123898915,A2,CS/SSC/SSM permit,11/13/2021,1043254,MANHATTAN,108,156 EAST 79TH STREET,1,40.77450942993164,-73.95857238769531
121187599,NB,CS/SSC/SSM permit,6/1/2021,1043853,MANHATTAN,108,1059 THIRD AVENUE,1,40.763671875,-73.9646224975586
123705641,A2,CS/SSC/SSM permit,4/1/2021,1043896,MANHATTAN,108,210 EAST 68TH STREET,1,40.766788482666016,-73.96212768554688
140922624,A2,CS/SSC/SSM permit,3/1/2021,1043902,MANHATTAN,108,200 EAST 69TH STREET,1,40.76728820800781,-73.96176147460938
123383409,A1,CS/SSC/SSM permit,3/20/2021,1044018,MANHATTAN,108,236 EAST 74TH ST,1,40.77029037475586,-73.95841217041016
123548624,DM,CS/SSC/SSM permit,4/3/2021,1044043,MANHATTAN,108,204 EAST 75TH STREET,1,40.77130126953125,-73.95883178710938
140736434,A2,CS/SSC/SSM permit,2/16/2021,1044390,MANHATTAN,108,340 EAST 64TH STREET,1,40.762630462646484,-73.9603500366211
140886067,A2,CS/SSC/SSM permit,3/13/2021,1044738,MANHATTAN,108,301 EAST 66TH STREET,1,40.76517105102539,-73.96060943603516
123891217,A2,CS/SSC/SSM permit,1/30/2021,1044753,MANHATTAN,108,315 EAST 68TH STREET,1,40.766231536865234,-73.95953369140625
140954233,A2,CS/SSC/SSM permit,1/20/2021,1044753,MANHATTAN,108,315 EAST 68TH ST,1,40.766231536865234,-73.95953369140625
140887949,A2,CS/SSC/SSM permit,6/7/2021,1044873,MANHATTAN,108,330 EAST 72ND STREET,1,40.76811981201172,-73.95748901367188
123708826,A2,CS/SSC/SSM permit,3/21/2021,1044879,MANHATTAN,108,325 EAST 72 STREET,1,40.76850128173828,-73.9569320678711
121205702,A1,CS/SSC/SSM permit,12/16/2021,1044930,MANHATTAN,108,351 EAST 74 STREET,1,40.769561767578125,-73.95549774169922
140911360,A2,CS/SSC/SSM permit,7/15/2021,1045148,MANHATTAN,108,370 EAST 76 STREET,1,40.770328521728516,-73.95478820800781
123411897,A2,CS/SSC/SSM permit,1/1/2022,1045185,MANHATTAN,108,324 EAST 77 STREET,1,40.77141189575195,-73.95516967773438
123824629,A2,CS/SSC/SSM permit,3/1/2021,1045808,MANHATTAN,108,400 EAST 71ST STREET,1,40.766639709472656,-73.95626068115234
123176491,A2,CS/SSC/SSM permit,5/14/2021,1045891,MANHATTAN,108,401 EAST 74TH STREET,1,40.76919937133789,-73.95448303222656
123690862,A2,CS/SSC/SSM permit,3/14/2021,1046026,MANHATTAN,108,440 EAST 79 STREET,1,40.77143859863281,-73.95140075683594
122760654,NB,CS/SSC/SSM permit,4/1/2021,1046294,MANHATTAN,108,1402 YORK AVENUE,3,40.76832962036133,-73.95226287841797
123901242,A1,CS/SSC/SSM permit,6/29/2021,1046449,MANHATTAN,108,54 EAST 80TH STREET,1,40.77653121948242,-73.96111297607422
121188366,NB,CS/SSC/SSM permit,7/29/2021,1046469,MANHATTAN,108,1045 MADISON AVENUE,1,40.77655029296875,-73.96163940429688
123185980,A2,CS/SSC/SSM permit,9/14/2021,1046616,MANHATTAN,108,19 EAST 80TH STREET,1,40.77730941772461,-73.96183776855469
122458072,A1,CS/SSC/SSM permit,1/29/2021,1046623,MANHATTAN,108,59 EAST 80TH STREET,1,40.776851654052734,-73.9606704711914
123081066,A1,CS/SSC/SSM permit,12/13/2021,1046654,MANHATTAN,108,63 EAST 80TH STREET,1,40.776790618896484,-73.96056365966797
121235966,A1,CS/SSC/SSM permit,11/1/2021,1046680,MANHATTAN,108,12 EAST  82 STREET,1,40.77840042114258,-73.96160888671875
123764042,A2,CS/SSC/SSM permit,1/27/2021,1046686,MANHATTAN,108,1001 FIFTH AVENUE,1,40.77859115600586,-73.96217346191406
123432366,A2,CS/SSC/SSM permit,12/1/2021,1046786,MANHATTAN,108,990 PARK AVENUE,1,40.77894973754883,-73.95896911621094
121190790,A1,CS/SSC/SSM permit,1/14/2021,1046812,MANHATTAN,108,7 EAST 84TH STREET,1,40.78009033203125,-73.96048736572266
123771837,A2,CS/SSC/SSM permit,4/19/2021,1046827,MANHATTAN,108,1040 FIFTH AVENUE,1,40.78092956542969,-73.96047973632812
123495164,A2,CS/SSC/SSM permit,8/1/2021,1046833,MANHATTAN,108,1020 PARK AVENUE,1,40.779850006103516,-73.95787811279297
123699079,DM,CS/SSC/SSM permit,4/3/2021,1046840,MANHATTAN,108,50 EAST 86TH STREET,1,40.78049850463867,-73.95870971679688
123763686,A2,CS/SSC/SSM permit,11/13/2021,1046842,MANHATTAN,108,1049 5TH AVENUE,1,40.781028747558594,-73.95996856689453
123807862,A2,CS/SSC/SSM permit,10/3/2021,1046845,MANHATTAN,108,1050 FIFTH AVENUE,1,40.78163146972656,-73.95989227294922
123539652,A1,CS/SSC/SSM permit,6/1/2021,1046966,MANHATTAN,108,1083 5 AVENUE,1,40.78361129760742,-73.95850372314453
123701903,A2,CS/SSC/SSM permit,2/1/2021,1046983,MANHATTAN,108,21 EAST 90 STREET,1,40.783729553222656,-73.95710754394531
123739419,A2,CS/SSC/SSM permit,2/28/2021,1046991,MANHATTAN,108,1120 PARK AVENUE,1,40.783111572265625,-73.95565032958984
140885843,A2,CS/SSC/SSM permit,4/1/2021,1047003,MANHATTAN,108,46 EAST  91 STREET,1,40.78377151489258,-73.95645141601562
123880247,A1,CS/SSC/SSM permit,7/14/2021,1047043,MANHATTAN,108,10 EAST 92ND STREET,1,40.78487014770508,-73.95709228515625
123189389,A2,CS/SSC/SSM permit,4/30/2021,1047066,MANHATTAN,108,1304 MADISON AVENUE,1,40.78506088256836,-73.95604705810547
123847392,A1,CS/SSC/SSM permit,12/2/2021,1047067,MANHATTAN,108,1295 MADISON AVENUE,1,40.784759521484375,-73.95567321777344
122475990,A1,CS/SSC/SSM permit,3/12/2021,1047419,MANHATTAN,108,1143 FIFTH AVE,1,40.78738021850586,-73.95575714111328
140917792,A2,CS/SSC/SSM permit,5/2/2021,1047431,MANHATTAN,108,1220 PARK AVENUE,1,40.78627014160156,-73.95340728759766
123869368,A2,CS/SSC/SSM permit,3/1/2021,1047433,MANHATTAN,108,70 EAST 96 STREET,1,40.7866096496582,-73.95342254638672
123225928,A2,CS/SSC/SSM permit,7/28/2021,1047434,MANHATTAN,108,60 EAST 96 STREET,1,40.786739349365234,-73.95374298095703
140877380,A2,CS/SSC/SSM permit,3/12/2021,1047460,MANHATTAN,108,903 PARK AVENUE,1,40.77573013305664,-73.95999908447266
121205187,NB,CS/SSC/SSM permit,9/18/2021,1047461,MANHATTAN,108,109 EAST 79TH STREET,3,40.77565002441406,-73.95982360839844
123392168,A1,CS/SSC/SSM permit,4/10/2021,1047484,MANHATTAN,108,168 EAST 80 ST,1,40.77511978149414,-73.95777130126953
123857638,A2,CS/SSC/SSM permit,8/2/2021,1047495,MANHATTAN,108,911 PARK AVENUE,1,40.77593994140625,-73.959716796875
123795296,A1,CS/SSC/SSM permit,12/18/2021,1047615,MANHATTAN,108,159 EAST 82 STREET,1,40.776798248291016,-73.95668029785156
140917621,A2,CS/SSC/SSM permit,2/28/2021,1047667,MANHATTAN,108,135 EAST 83RD STREET,1,40.777610778808594,-73.95658874511719
123432936,A2,CS/SSC/SSM permit,3/1/2021,1047928,MANHATTAN,108,111 EAST 85 STREET,1,40.77947998046875,-73.95662689208984
123352905,A2,CS/SSC/SSM permit,1/30/2021,1047938,MANHATTAN,108,185 EAST 85TH STREET,1,40.77867126464844,-73.95472717285156
123676646,A2,CS/SSC/SSM permit,3/13/2021,1048101,MANHATTAN,108,1095 PARK AVENUE,1,40.78171920776367,-73.9554672241211
123147120,A1,CS/SSC/SSM permit,4/1/2021,1048287,MANHATTAN,108,1141 PARK AVENUE,1,40.783321380615234,-73.9544906616211
122521020,A1,CS/SSC/SSM permit,8/7/2021,1048363,MANHATTAN,108,160 E 93 ST,1,40.78355026245117,-73.95201110839844
122049602,A2,CS/SSC/SSM permit,2/12/2021,1048367,MANHATTAN,108,130 E 93RD STREET,1,40.78390121459961,-73.95285034179688
123744635,A2,CS/SSC/SSM permit,2/16/2021,1048384,MANHATTAN,108,1185 PARK AVENUE,1,40.7846794128418,-73.95311737060547
123784912,A2,CS/SSC/SSM permit,6/29/2021,1048448,MANHATTAN,108,140 EAST 95TH STREET,1,40.785160064697266,-73.9517593383789
123805347,A2,CS/SSC/SSM permit,3/25/2021,1048509,MANHATTAN,108,201 EAST 79TH STREET,1,40.77452087402344,-73.9566879272461
140928487,A2,CS/SSC/SSM permit,5/31/2021,1048523,MANHATTAN,108,201 EST 80 STREET,1,40.77497100830078,-73.95625305175781
121193626,A1,CS/SSC/SSM permit,2/9/2021,1048666,MANHATTAN,108,238 1/2 EAST 83 STREET,1,40.77600860595703,-73.95397186279297
121205356,NB,CS/SSC/SSM permit,9/15/2021,1048679,MANHATTAN,108,200 EAST 83 STREET,2,40.77666091918945,-73.9552001953125
123741406,A2,CS/SSC/SSM permit,3/21/2021,1048692,MANHATTAN,108,201 EAST 83RD STREET,1,40.77690124511719,-73.95498657226562
123801458,A2,CS/SSC/SSM permit,3/29/2021,1048787,MANHATTAN,108,201 EAST 86TH STREET,1,40.77888107299805,-73.9534683227539
123416222,DM,CS/SSC/SSM permit,1/31/2021,1049880,MANHATTAN,108,331 E 82 STRET,1,40.77492904663086,-73.9521713256836
123545262,NB,CS/SSC/SSM permit,11/15/2021,1049881,MANHATTAN,108,333 E82 ST,1,40.77492904663086,-73.9521713256836
123416231,DM,CS/SSC/SSM permit,1/31/2021,1049882,MANHATTAN,108,335 E 82 STRET,1,40.77492904663086,-73.9521713256836
123416213,DM,CS/SSC/SSM permit,1/31/2021,1049911,MANHATTAN,108,337 E 82 STRET,1,40.77492904663086,-73.9521713256836
120952530,A1,CS/SSC/SSM permit,12/1/2021,1049962,MANHATTAN,108,327 EAST 84TH STREET,1,40.776248931884766,-73.95136260986328
121188384,A1,CS/SSC/SSM permit,4/11/2021,1050055,MANHATTAN,108,350 EAST 88TH STREET,1,40.77825927734375,-73.94920349121094
123704884,A2,CS/SSC/SSM permit,3/27/2021,1050118,MANHATTAN,108,389 EAST 89 STREET,1,40.77912902832031,-73.9481430053711
123693244,A2,CS/SSC/SSM permit,6/28/2021,1050139,MANHATTAN,108,1726 2ND AVE,1,40.78010177612305,-73.94978332519531
123595788,A2,CS/SSC/SSM permit,1/31/2021,1050282,MANHATTAN,108,319 EAST 93 STREET,1,40.78205108642578,-73.94730377197266
123887080,A2,CS/SSC/SSM permit,3/1/2021,1050288,MANHATTAN,108,345 EAST 93RD STREET,1,40.78178024291992,-73.94625854492188
140243626,A2,CS/SSC/SSM permit,2/15/2021,1050342,MANHATTAN,108,1850 2ND AVE,1,40.783870697021484,-73.94695281982422
104837508,A2,CS/SSC/SSM permit,3/27/2021,1050396,MANHATTAN,108,444 EAST   82 STREET,1,40.773231506347656,-73.94972229003906
123076991,A1,CS/SSC/SSM permit,3/2/2021,1050477,MANHATTAN,108,418 EAST 84 ST,1,40.77505111694336,-73.94970703125
123757121,A2,CS/SSC/SSM permit,7/19/2021,1050544,MANHATTAN,108,430 EAST 86 STREET,1,40.776161193847656,-73.94843292236328
122816658,A2,CS/SSC/SSM permit,3/21/2021,1050548,MANHATTAN,108,425 EAST 86TH STREET,1,40.77667999267578,-73.94815826416016
140906562,A2,CS/SSC/SSM permit,11/13/2021,1050634,MANHATTAN,108,1725 YORK AVENUE,1,40.7783203125,-73.94597625732422
121191352,NB,CS/SSC/SSM permit,6/30/2021,1050636,MANHATTAN,108,412 EAST 90TH STREET,1,40.77878952026367,-73.94656372070312
122352649,A2,CS/SSC/SSM permit,3/17/2021,1050733,MANHATTAN,108,1735 YORK AVE,1,40.77885055541992,-73.94557189941406
122961321,NB,CS/SSC/SSM permit,7/27/2021,1050759,MANHATTAN,108,428 EAST 92 STREET,1,40.77996063232422,-73.94544219970703
123734209,A2,CS/SSC/SSM permit,5/15/2021,1050763,MANHATTAN,108,1775 YORK AVENUE,1,40.78022003173828,-73.94454193115234
123531099,NB,CS/SSC/SSM permit,7/14/2021,1051254,MANHATTAN,108,1622 YORK AVENUE,3,40.775569915771484,-73.94702911376953
123865380,A2,CS/SSC/SSM permit,3/1/2021,1051364,MANHATTAN,108,524 EAST 89TH STREET,1,40.77717971801758,-73.94476318359375
123690791,A2,CS/SSC/SSM permit,3/27/2021,1051377,MANHATTAN,108,25 EAST END AVENUE,1,40.77117156982422,-73.94718933105469
121204543,NB,CS/SSC/SSM permit,11/20/2021,1051432,MANHATTAN,110,11 WEST 116 ST,1,40.80120086669922,-73.9469985961914
123671428,A2,CS/SSC/SSM permit,7/10/2021,1051460,MANHATTAN,111,9 EAST 97TH STREET,1,40.78839874267578,-73.95427703857422
123526078,A2,CS/SSC/SSM permit,3/20/2021,1051490,MANHATTAN,111,1212 FIFTH AVENUE,1,40.79140090942383,-73.95282745361328
122240887,NB,CS/SSC/SSM permit,3/13/2021,1051619,MANHATTAN,111,94 EAST 111 STREET,1,40.79597091674805,-73.94603729248047
140953877,A2,CS/SSC/SSM permit,1/15/2022,1051624,MANHATTAN,111,1661 MADISON AVE,1,40.79645919799805,-73.94706726074219
123823274,A1,CS/SSC/SSM permit,8/13/2021,1051625,MANHATTAN,111,53 EAST 110 STREET,1,40.79618835449219,-73.94711303710938
121189702,A1,CS/SSC/SSM permit,8/20/2021,1051831,MANHATTAN,111,101 EAST 101 STREET,1,40.789791107177734,-73.94986724853516
122676176,A1,CS/SSC/SSM permit,1/8/2021,1052022,MANHATTAN,111,1697 LEXINGTON AVE,1,40.7924690246582,-73.94579315185547
123387904,DM,CS/SSC/SSM permit,6/12/2021,1052184,MANHATTAN,111,170 EAST 111 STREET,1,40.79494094848633,-73.94336700439453
123503100,DM,CS/SSC/SSM permit,6/12/2021,1052185,MANHATTAN,111,168 EAST 111 ST,1,40.79497146606445,-73.94344329833984
123485102,DM,CS/SSC/SSM permit,6/12/2021,1052186,MANHATTAN,111,164 EAST 111 STREET,1,40.795021057128906,-73.94355010986328
123485111,DM,CS/SSC/SSM permit,6/12/2021,1052199,MANHATTAN,111,166 EAST 111 STREET,1,40.79499053955078,-73.94348907470703
123557846,A2,CS/SSC/SSM permit,9/1/2021,1052223,MANHATTAN,111,128 EAST 112 STREET,1,40.79615020751953,-73.94426727294922
123019606,A1,CS/SSC/SSM permit,9/1/2021,1052223,MANHATTAN,111,128 EAST 112 STREET,1,40.79615020751953,-73.94426727294922
121976200,A1,CS/SSC/SSM permit,3/6/2021,1052268,MANHATTAN,111,116 E 116 ST,1,40.79869079589844,-73.94252014160156
121205597,NB,CS/SSC/SSM permit,5/14/2021,1052673,MANHATTAN,111,1998 2ND AVENUE,3,40.78845977783203,-73.94361114501953
123742389,DM,CS/SSC/SSM permit,11/27/2021,1052688,MANHATTAN,111,344 EAST 104TH STREET,1,40.78837966918945,-73.9417495727539
123742370,DM,CS/SSC/SSM permit,11/28/2021,1052689,MANHATTAN,111,342 EAST 104TH STREET,1,40.78845977783203,-73.94194793701172
123687965,A2,CS/SSC/SSM permit,1/31/2021,1052774,MANHATTAN,111,312 EAST 106 STREET,1,40.79003143310547,-73.94175720214844
123236514,A2,CS/SSC/SSM permit,3/22/2021,1052774,MANHATTAN,111,312 E 106 STREET,1,40.79003143310547,-73.94175720214844
120672432,NB,CS/SSC/SSM permit,4/1/2021,1053165,MANHATTAN,111,316 PLEASANT AVENUE,1,40.795440673828125,-73.9324722290039
123703796,A1,CS/SSC/SSM permit,5/9/2021,1053226,MANHATTAN,110,34 WEST 119TH ST.,1,40.802940368652344,-73.94645690917969
121203875,A1,CS/SSC/SSM permit,1/16/2021,1053393,MANHATTAN,110,15 WEST 122ND STREET,1,40.80570983886719,-73.94599914550781
123922014,A2,CS/SSC/SSM permit,3/1/2021,1053522,MANHATTAN,110,60 WEST 126 STREET,1,40.80775833129883,-73.9439697265625
123344087,A1,CS/SSC/SSM permit,4/8/2021,1053542,MANHATTAN,110,75 WEST 126TH STREET,1,40.808380126953125,-73.94425201416016
123200311,NB,CS/SSC/SSM permit,5/7/2021,1053577,MANHATTAN,110,26 WEST 127TH STREET,1,40.808021545410156,-73.942626953125
123821882,A1,CS/SSC/SSM permit,10/7/2021,1053629,MANHATTAN,110,17 WEST 127TH STREET,1,40.80826950073242,-73.94204711914062
121189604,A1,CS/SSC/SSM permit,2/20/2021,1053770,MANHATTAN,110,406 LENOX AVENUE,1,40.81093978881836,-73.94268035888672
121189622,A1,CS/SSC/SSM permit,3/25/2021,1053825,MANHATTAN,110,424 LENOX AVENUE,1,40.811580657958984,-73.9422378540039
121189631,A1,CS/SSC/SSM permit,2/2/2021,1053826,MANHATTAN,110,426 LENOX AVENUE,1,40.81163024902344,-73.94220733642578
121188160,A1,CS/SSC/SSM permit,6/15/2021,1053881,MANHATTAN,110,2148 5 AVENUE,1,40.810630798339844,-73.93953704833984
121204623,A1,CS/SSC/SSM permit,5/6/2021,1053884,MANHATTAN,110,432 LENOX AVENUE,1,40.81174087524414,-73.94212341308594
123567942,A1,CS/SSC/SSM permit,7/1/2021,1054011,MANHATTAN,111,26 EAST 125TH STREET,1,40.80564880371094,-73.94119262695312
123833511,DM,CS/SSC/SSM permit,5/31/2021,1054051,MANHATTAN,111,52 EAST 126TH ST,1,40.805938720703125,-73.93963623046875
140934737,A2,CS/SSC/SSM permit,6/3/2021,1054051,MANHATTAN,111,52 EAST 126 STREET,1,40.805938720703125,-73.93963623046875
123416918,DM,CS/SSC/SSM permit,5/1/2021,1054092,MANHATTAN,111,1975 MADISON AVENUE,1,40.80643081665039,-73.93965148925781
123148593,A1,CS/SSC/SSM permit,3/9/2021,1054204,MANHATTAN,111,14 E 129 STREET,1,40.80842971801758,-73.93974304199219
121188473,NB,CS/SSC/SSM permit,1/15/2022,1054351,MANHATTAN,111,159 EAST 118TH STREET,3,40.79983901977539,-73.93987274169922
123709095,DM,CS/SSC/SSM permit,10/30/2021,1054464,MANHATTAN,111,167 EAST 124TH STREET,1,40.80353927612305,-73.93697357177734
122549206,DM,CS/SSC/SSM permit,5/1/2021,1054560,MANHATTAN,111,2331 2ND AVENUE,1,40.799400329589844,-73.93639373779297
122549215,DM,CS/SSC/SSM permit,5/1/2021,1054561,MANHATTAN,111,2333 2ND AVENUE,1,40.799461364746094,-73.93634033203125
122554468,DM,CS/SSC/SSM permit,5/1/2021,1054562,MANHATTAN,111,2335 2ND AVENUE,1,40.79951858520508,-73.93628692626953
122559999,DM,CS/SSC/SSM permit,5/1/2021,1054563,MANHATTAN,111,248 EAST 120TH STREET,1,40.79957962036133,-73.93624877929688
140937315,A2,CS/SSC/SSM permit,7/1/2021,1054626,MANHATTAN,111,2253 THIRD AVENUE,1,40.80194091796875,-73.93663024902344
121204464,NB,CS/SSC/SSM permit,6/1/2021,1054682,MANHATTAN,111,201 EAST 125 STREET,3,40.80376052856445,-73.9354476928711
123415919,A1,CS/SSC/SSM permit,1/31/2021,1054766,MANHATTAN,111,320 EAST 120 STREET,1,40.7989501953125,-73.93505096435547
123817502,A2,CS/SSC/SSM permit,4/1/2021,1055262,MANHATTAN,107,7 WEST 96TH STREET,1,40.79220962524414,-73.96528625488281
123447261,A1,CS/SSC/SSM permit,2/21/2021,1055785,MANHATTAN,110,325 WEST 112TH STREET,1,40.8024787902832,-73.95812225341797
103652478,A2,CS/SSC/SSM permit,1/25/2021,1055890,MANHATTAN,109,123 MORNINGSIDE DRIVE,1,40.810699462890625,-73.95741271972656
140841659,A2,CS/SSC/SSM permit,3/4/2021,1055893,MANHATTAN,107,127 WEST 96TH STREET,1,40.79378890991211,-73.9690170288086
103648153,A2,CS/SSC/SSM permit,9/1/2021,1055990,MANHATTAN,107,103 WEST 107 STREET,1,40.80072021484375,-73.9632568359375
123509373,A2,CS/SSC/SSM permit,3/18/2021,1055996,MANHATTAN,107,981 AMSTERDAM AVENUE,1,40.80170822143555,-73.9643783569336
123047121,A1,CS/SSC/SSM permit,4/1/2021,1056489,MANHATTAN,107,236 WEST 101ST STREET,1,40.79793930053711,-73.97028350830078
123538555,A1,CS/SSC/SSM permit,4/3/2021,1056545,MANHATTAN,107,2690 BROADWAY,1,40.798828125,-73.96822357177734
123538546,A1,CS/SSC/SSM permit,4/3/2021,1056546,MANHATTAN,107,2688 BROADWAY,1,40.79875946044922,-73.96827697753906
123538564,A1,CS/SSC/SSM permit,9/1/2021,1056547,MANHATTAN,107,2686 BROADWAY,1,40.79867172241211,-73.96835327148438
140907295,A2,CS/SSC/SSM permit,1/15/2021,1056579,MANHATTAN,107,890 WEST END AVENUE,1,40.800018310546875,-73.9693374633789
123802787,A2,CS/SSC/SSM permit,6/24/2021,1056583,MANHATTAN,107,245 WEST 104TH STREET,1,40.8001594543457,-73.96855163574219
140741874,A2,CS/SSC/SSM permit,8/1/2021,1056586,MANHATTAN,107,2724 BROADWAY,1,40.79978942871094,-73.96774291992188
123003686,A1,CS/SSC/SSM permit,4/1/2021,1057042,MANHATTAN,109,538 WEST 114 STREET,1,40.8060302734375,-73.96383666992188
123140779,A2,CS/SSC/SSM permit,3/20/2021,1057060,MANHATTAN,107,755 WEST END AVENUE,1,40.79589080810547,-73.97312927246094
140885228,A2,CS/SSC/SSM permit,2/1/2021,1057127,MANHATTAN,107,280 RIVERSIDE DRIVE,1,40.79861068725586,-73.97265625
140887413,A2,CS/SSC/SSM permit,3/23/2021,1057147,MANHATTAN,107,290 RIVERSIDE DRIVE,1,40.799129486083984,-73.97210693359375
123744449,A2,CS/SSC/SSM permit,8/1/2021,1057155,MANHATTAN,107,845 WEST END AVENUE,1,40.79880905151367,-73.97109985351562
110085283,A1,CS/SSC/SSM permit,3/6/2021,1057192,MANHATTAN,107,315 WEST  103 STREET,1,40.80023956298828,-73.97064971923828
123809263,A2,CS/SSC/SSM permit,2/1/2021,1057209,MANHATTAN,107,320 RIVERSIDE DRIVE,1,40.80105972290039,-73.97059631347656
123097451,A2,CS/SSC/SSM permit,4/20/2021,1057226,MANHATTAN,107,330 RIVERSIDE DRIVE,1,40.80158996582031,-73.9702377319336
122487629,A1,CS/SSC/SSM permit,1/31/2021,1057274,MANHATTAN,107,351 RIVERSIDE DRIVE,1,40.802978515625,-73.96923065185547
121583553,NB,CS/SSC/SSM permit,3/19/2021,1057375,MANHATTAN,109,633 WEST 115TH STREET,1,40.80813980102539,-73.9657211303711
121206391,A1,CS/SSC/SSM permit,5/15/2021,1057415,MANHATTAN,110,138 WEST 117 STREET,1,40.80318832397461,-73.95094299316406
123133199,NB,CS/SSC/SSM permit,7/18/2021,1057739,MANHATTAN,110,110 WEST 123RD STREET,2,40.80659866333008,-73.94734954833984
123240251,A1,CS/SSC/SSM permit,1/4/2022,1057807,MANHATTAN,110,160 WEST 124 STREET,1,40.807830810546875,-73.94833374023438
121187857,NB,CS/SSC/SSM permit,9/14/2021,1057819,MANHATTAN,110,144 WEST 125 STREET,3,40.808250427246094,-73.94772338867188
104713197,A1,CS/SSC/SSM permit,1/19/2021,1057978,MANHATTAN,110,145 WEST  129 STREET,1,40.811180114746094,-73.94509887695312
123466659,DM,CS/SSC/SSM permit,9/7/2021,1058020,MANHATTAN,110,132 WEST 130 STREET,1,40.811279296875,-73.94458770751953
123198075,A1,CS/SSC/SSM permit,1/31/2021,1058086,MANHATTAN,110,153 WEST 131ST STREET,1,40.81256103515625,-73.94450378417969
121189613,A1,CS/SSC/SSM permit,8/7/2021,1058151,MANHATTAN,110,135 WEST 132ND STREET,1,40.81296920776367,-73.94352722167969
121206346,A1,CS/SSC/SSM permit,5/15/2021,1058380,MANHATTAN,110,264 WEST 117 STREET,1,40.80445861816406,-73.95394897460938
104213708,A2,CS/SSC/SSM permit,2/27/2021,1058447,MANHATTAN,110,212 WEST 120TH STREET,1,40.80590057373047,-73.95191192626953
121187447,NB,CS/SSC/SSM permit,4/8/2021,1058657,MANHATTAN,110,233 WEST 125TH STREET,1,40.809959411621094,-73.9493637084961
123075288,A1,CS/SSC/SSM permit,2/13/2021,1058967,MANHATTAN,110,220 WEST 137 STREET,1,40.81686019897461,-73.94397735595703
140921233,A1,CS/SSC/SSM permit,7/6/2021,1058981,MANHATTAN,110,288 WEST 137TH STREET,1,40.81732940673828,-73.94508361816406
123035624,NB,CS/SSC/SSM permit,3/7/2021,1059296,MANHATTAN,109,11 HANCOCK PLACE,1,40.81074142456055,-73.9534683227539
121960431,A1,CS/SSC/SSM permit,1/29/2021,1059488,MANHATTAN,110,46 EDGECOMBE AVE,1,40.818180084228516,-73.94679260253906
123137685,A1,CS/SSC/SSM permit,4/1/2021,1059527,MANHATTAN,109,1341 AMSTERDAM AVENUE,1,40.813438415527344,-73.95597076416016
122814801,A2,CS/SSC/SSM permit,4/1/2021,1059527,MANHATTAN,109,1341 AMSTERDAM AVENUE,1,40.813438415527344,-73.95597076416016
122918101,A1,CS/SSC/SSM permit,2/14/2021,1059629,MANHATTAN,109,102 CONVENT AVE,1,40.81687927246094,-73.95287322998047
122529488,NB,CS/SSC/SSM permit,4/11/2021,1059635,MANHATTAN,109,1471 AMSTERDAM AVENUE,1,40.81721115112305,-73.95311737060547
123740121,DM,CS/SSC/SSM permit,5/1/2021,1059885,MANHATTAN,109,3191 BROADWAY,1,40.81581115722656,-73.9588394165039
123835706,DM,CS/SSC/SSM permit,5/1/2021,1059888,MANHATTAN,109,614 WEST 125TH STREET,1,40.8161506652832,-73.959228515625
121188696,NB,CS/SSC/SSM permit,7/1/2021,1060187,MANHATTAN,110,119 WEST 145 STREET,1,40.82101821899414,-73.93689727783203
123406670,A2,CS/SSC/SSM permit,7/1/2021,1060189,MANHATTAN,110,100 WEST 146TH STREET,1,40.821170806884766,-73.93649291992188
123872363,NB,CS/SSC/SSM permit,11/19/2021,1060495,MANHATTAN,110,2750 FREDERICK DOUGLASS BOULEVARD,3,40.82347106933594,-73.9410629272461
121205061,A1,CS/SSC/SSM permit,12/29/2021,1060550,MANHATTAN,110,2794 EIGHTH AVENUE,1,40.82489013671875,-73.9400634765625
121204829,NB,CS/SSC/SSM permit,8/28/2021,1060632,MANHATTAN,110,101 MACOMBS PLACE,3,40.82789993286133,-73.93569946289062
123575425,A2,CS/SSC/SSM permit,2/28/2021,1060632,MANHATTAN,110,101 MACOMBS PLACE,1,40.82789993286133,-73.93569946289062
123267464,DM,CS/SSC/SSM permit,1/17/2021,1060723,MANHATTAN,110,116 EDGECOMBE AVENUE,1,40.81999969482422,-73.94548034667969
120649735,A1,CS/SSC/SSM permit,1/31/2021,1060948,MANHATTAN,109,351 CONVENT AVENUE,1,40.82429122924805,-73.94609832763672
121206621,NB,CS/SSC/SSM permit,11/23/2021,1061007,MANHATTAN,109,655 ST. NICHOLAS AVENUE,2,40.82268142700195,-73.9458236694336
140945226,A2,CS/SSC/SSM permit,9/10/2021,1061007,MANHATTAN,109,655 ST. NICHOLAS AVENUE,1,40.82268142700195,-73.9458236694336
123397886,A1,CS/SSC/SSM permit,1/8/2021,1061470,MANHATTAN,109,465 WEST 147TH STREET,1,40.82645034790039,-73.9458999633789
121185038,A1,CS/SSC/SSM permit,9/22/2021,1061514,MANHATTAN,109,767 ST. NICHOLAS AVENUE,1,40.82646942138672,-73.94352722167969
122620681,NB,CS/SSC/SSM permit,8/21/2021,1061567,MANHATTAN,109,449 CONVENT AVENUE,3,40.82741928100586,-73.94387817382812
121187955,NB,CS/SSC/SSM permit,1/29/2021,1061865,MANHATTAN,109,512 WEST 143RD STREET,3,40.82429885864258,-73.94999694824219
121188623,A1,CS/SSC/SSM permit,10/1/2021,1061927,MANHATTAN,109,503 WEST 144 STREET,1,40.8249397277832,-73.94841003417969
121204561,A1,CS/SSC/SSM permit,11/11/2021,1062436,MANHATTAN,109,601 WEST 148 STREET,1,40.82862091064453,-73.94934844970703
123545388,A1,CS/SSC/SSM permit,2/14/2021,1062483,MANHATTAN,112,912 ST. NICHOLAS AVENUE,1,40.831260681152344,-73.94096374511719
121205070,A1,CS/SSC/SSM permit,1/1/2022,1062675,MANHATTAN,112,2185 AMSTERDAM AVENUE,1,40.84008026123047,-73.93636322021484
121205472,A1,CS/SSC/SSM permit,2/4/2021,1062715,MANHATTAN,112,1950 AMSTERDAM AVENUE,1,40.83277893066406,-73.94249725341797
123812758,A2,CS/SSC/SSM permit,2/4/2021,1062715,MANHATTAN,112,1950 AMSTERDAM AVENUE,1,40.83277893066406,-73.94249725341797
121205043,A1,CS/SSC/SSM permit,1/1/2022,1062896,MANHATTAN,112,2110 AMSTERDAM AVENUE,1,40.83781814575195,-73.93881225585938
123810849,DM,CS/SSC/SSM permit,6/21/2021,1063045,MANHATTAN,112,565 WEST 170 STREET,1,40.842220306396484,-73.93814086914062
140910824,A3,CS/SSC/SSM permit,1/22/2021,1063136,MANHATTAN,112,500 WEST 174 STREET,1,40.843589782714844,-73.93460845947266
123413109,A2,CS/SSC/SSM permit,1/10/2021,1063278,MANHATTAN,112,156-20 RIVERSIDE DRIVE,1,40.83544921875,-73.9481430053711
123694626,A2,CS/SSC/SSM permit,4/1/2021,1063402,MANHATTAN,112,701 WEST 168 STREET,1,40.842689514160156,-73.94258117675781
120287625,A1,CS/SSC/SSM permit,8/26/2021,1063574,MANHATTAN,112,76 WADSWORTH AVENUE,1,40.84695816040039,-73.93743133544922
123153041,DM,CS/SSC/SSM permit,6/26/2021,1063577,MANHATTAN,112,2461 AMSTERDAM AVE,1,40.84870147705078,-73.93006134033203
121188589,A1,CS/SSC/SSM permit,12/9/2021,1063603,MANHATTAN,112,2414 AMSTERDAM AVENUE,1,40.8474006652832,-73.93183135986328
122820260,A1,CS/SSC/SSM permit,10/1/2021,1063614,MANHATTAN,112,516 WEST 181ST STREET,1,40.848358154296875,-73.93221282958984
103641686,A2,CS/SSC/SSM permit,5/13/2021,1063928,MANHATTAN,112,180 WADSWORTH AVENUE,1,40.85068130493164,-73.93467712402344
103651111,A2,CS/SSC/SSM permit,7/15/2021,1063947,MANHATTAN,112,185 WADSWORTH AVENUE,1,40.85055923461914,-73.93396759033203
123920677,DM,CS/SSC/SSM permit,6/28/2021,1064065,MANHATTAN,112,37 HILLSIDE AVENUE,1,40.85818862915039,-73.9296875
104213209,A3,CS/SSC/SSM permit,11/26/2021,1064149,MANHATTAN,112,93 NAGLE AVENUE,1,40.85993957519531,-73.92756652832031
121188785,A1,CS/SSC/SSM permit,5/15/2021,1064203,MANHATTAN,112,21 ARDEN STREET,1,40.861671447753906,-73.92664337158203
103402881,NB,CS/SSC/SSM permit,3/17/2021,1064672,MANHATTAN,108,22 MARBLE HILL AVENUE,1,40.87506866455078,-73.91017150878906
122147765,NB,CS/SSC/SSM permit,4/30/2021,1064765,MANHATTAN,112,153 SHERMAN AVENUE,1,40.864288330078125,-73.92298889160156
123226491,A1,CS/SSC/SSM permit,2/12/2021,1067540,MANHATTAN,102,137 WEST 13TH STREET,1,40.737491607666016,-73.99868774414062
123478986,A2,CS/SSC/SSM permit,3/1/2021,1069590,MANHATTAN,105,151 WEST 54TH STREET,1,40.76346969604492,-73.98046875
123910492,A2,CS/SSC/SSM permit,2/1/2021,1071151,MANHATTAN,107,250 WEST 89TH STREET,1,40.79021072387695,-73.9756088256836
123812179,A2,CS/SSC/SSM permit,7/1/2021,1072008,MANHATTAN,108,36 EAST 61ST STREET,1,40.764381408691406,-73.9699935913086
140947876,A2,CS/SSC/SSM permit,5/31/2021,1072223,MANHATTAN,108,233 EAST 69 STREET,1,40.767330169677734,-73.95992279052734
123225866,A2,CS/SSC/SSM permit,3/1/2021,1072696,MANHATTAN,108,530 EAST 76 STREET,1,40.7681884765625,-73.95008850097656
123061783,A2,CS/SSC/SSM permit,3/17/2021,1074035,MANHATTAN,108,52 EAST END AVE,1,40.7723388671875,-73.94703674316406
123500185,A2,CS/SSC/SSM permit,3/1/2021,1075787,MANHATTAN,103,33 BOWERY,1,40.71485900878906,-73.99594116210938
123309892,A2,CS/SSC/SSM permit,5/15/2021,1076166,MANHATTAN,106,330 EAST 38 STREET,1,40.74633026123047,-73.97271728515625
140903093,A2,CS/SSC/SSM permit,1/1/2022,1076268,MANHATTAN,105,277 PARK AVE,1,40.7552490234375,-73.97425842285156
123852045,A2,CS/SSC/SSM permit,2/2/2021,1076302,MANHATTAN,108,135 EAST 74TH STREET,1,40.77199935913086,-73.96138763427734
