Job Number,Job Type,CS/SSC/SSM permit,Permit Expiration Date,BIN,Borough,Community Board,Address,Count Permits,lat,lon
121324129,A1,CS/SSC/SSM permit,8/21/2020,1000003,MANHATTAN,101,10 SOUTH STREET,1,40.7005500793457,-74.01158905029297
140790393,A2,CS/SSC/SSM permit,10/1/2020,1000006,MANHATTAN,101,125 BROAD STREET,1,40.7022705078125,-74.0105972290039
123536147,A2,CS/SSC/SSM permit,1/31/2021,1000027,MANHATTAN,101,1 WHITEHALL STREET,1,40.70381164550781,-74.01275634765625
121333057,NB,CS/SSC/SSM permit,6/12/2021,1000041,MANHATTAN,101,11 STONE STREET,1,40.704200744628906,-74.01223754882812
140604308,A2,CS/SSC/SSM permit,3/1/2021,1000044,MANHATTAN,101,11 BROADWAY,1,40.70528030395508,-74.01426696777344
123836091,A2,CS/SSC/SSM permit,2/16/2021,1000047,MANHATTAN,101,21 WEST STREET,1,40.70637893676758,-74.01553344726562
140753619,A2,CS/SSC/SSM permit,3/21/2021,1000053,MANHATTAN,101,225 RECTOR PLACE,1,40.70949935913086,-74.01595306396484
121191021,NB,CS/SSC/SSM permit,6/8/2021,1000797,MANHATTAN,101,42 TRINITY PLACE,1,40.707359313964844,-74.01358032226562
121191995,NB,CS/SSC/SSM permit,7/18/2021,1000801,MANHATTAN,101,50 TRINITY PLACE,3,40.707759857177734,-74.01329803466797
123558998,A2,CS/SSC/SSM permit,4/1/2021,1000811,MANHATTAN,101,26 BROADWAY,1,40.70542907714844,-74.01290130615234
123046952,A2,CS/SSC/SSM permit,11/30/2020,1000815,MANHATTAN,101,1 WALL STREET,2,40.70711898803711,-74.01183319091797
121190086,A1,CS/SSC/SSM permit,7/7/2021,1000815,MANHATTAN,101,1 WALL STREET,1,40.70711898803711,-74.01183319091797
123850001,A2,CS/SSC/SSM permit,10/1/2020,1000832,MANHATTAN,101,5 HANOVER SQUARE,1,40.70507049560547,-74.00923156738281
123149887,A2,CS/SSC/SSM permit,12/30/2020,1000849,MANHATTAN,101,75 BROAD STREET,1,40.704689025878906,-74.01123809814453
123697464,A2,CS/SSC/SSM permit,7/23/2021,1000855,MANHATTAN,101,7 HANOVER SQUARE,1,40.70405960083008,-74.00965881347656
123843733,A2,CS/SSC/SSM permit,7/31/2021,1000855,MANHATTAN,101,7 HANOVER SQUARE,1,40.70405960083008,-74.00965881347656
123882753,A2,CS/SSC/SSM permit,1/31/2021,1000876,MANHATTAN,101,88 PINE STREET,1,40.70566177368164,-74.00615692138672
121189418,A1,CS/SSC/SSM permit,1/31/2021,1000877,MANHATTAN,101,88 WALL STREET,1,40.705528259277344,-74.00758361816406
123785715,A2,CS/SSC/SSM permit,1/31/2021,1000877,MANHATTAN,101,82 WALL STREET,1,40.705528259277344,-74.00758361816406
123122520,A2,CS/SSC/SSM permit,10/31/2020,1001014,MANHATTAN,101,100 MAIDEN LANE,1,40.70671844482422,-74.00721740722656
123164422,A2,CS/SSC/SSM permit,10/31/2020,1001021,MANHATTAN,101,28 LIBERTY STREET,1,40.70777130126953,-74.00911712646484
123862533,A2,CS/SSC/SSM permit,6/1/2021,1001028,MANHATTAN,101,75 BROADWAY,1,40.70814895629883,-74.01204681396484
121204909,NB,CS/SSC/SSM permit,1/1/2021,1001042,MANHATTAN,101,112 LIBERTY STREET,2,40.709590911865234,-74.01210021972656
123671749,A2,CS/SSC/SSM permit,9/21/2020,1001069,MANHATTAN,101,22 CORTLANDT STREET,1,40.7104606628418,-74.010498046875
123493898,A2,CS/SSC/SSM permit,1/30/2021,1001084,MANHATTAN,101,55 LIBERTY STREET,1,40.708839416503906,-74.0093765258789
140851291,A2,CS/SSC/SSM permit,2/15/2021,1001127,MANHATTAN,101,100 JOHN STREET,1,40.707908630371094,-74.00650024414062
123417427,DM,CS/SSC/SSM permit,6/28/2021,1001129,MANHATTAN,101,104 JOHN STREET,1,40.707679748535156,-74.00618743896484
123590890,DM,CS/SSC/SSM permit,6/28/2021,1001129,MANHATTAN,101,110 JOHN STREET,1,40.707679748535156,-74.00618743896484
123590881,DM,CS/SSC/SSM permit,6/28/2021,1001129,MANHATTAN,101,102 JOHN STREET,1,40.707679748535156,-74.00618743896484
140905821,A2,CS/SSC/SSM permit,12/3/2020,1001186,MANHATTAN,101,110 WILLIAM STREET,1,40.708770751953125,-74.0067367553711
123547386,A2,CS/SSC/SSM permit,9/4/2020,1001216,MANHATTAN,101,17 JOHN STREET,1,40.710018157958984,-74.0086669921875
123902321,DM,CS/SSC/SSM permit,12/31/2020,1001224,MANHATTAN,101,142 FULTON STREET,1,40.71030044555664,-74.0084228515625
123869634,A2,CS/SSC/SSM permit,12/18/2020,1001228,MANHATTAN,101,140 WEST STREET,1,40.71377944946289,-74.01293182373047
140816525,A2,CS/SSC/SSM permit,12/31/2020,1001264,MANHATTAN,101,119 FULTON STREET,1,40.71009826660156,-74.00694274902344
140801979,A2,CS/SSC/SSM permit,3/1/2021,1001280,MANHATTAN,101,150 WILLIAM STREET,1,40.70951843261719,-74.00579833984375
103641560,A1,CS/SSC/SSM permit,9/10/2020,1001363,MANHATTAN,101,1 PECK SLIP,1,40.7086296081543,-74.0019302368164
123708782,A2,CS/SSC/SSM permit,9/30/2020,1001399,MANHATTAN,101,11 PARK PLACE,1,40.71316146850586,-74.00821685791016
122811332,A2,CS/SSC/SSM permit,9/21/2020,1001408,MANHATTAN,101,250 BROADWAY,1,40.71297073364258,-74.0078125
122223183,A1,CS/SSC/SSM permit,9/28/2020,1001409,MANHATTAN,101,100 CHURCH STREET,1,40.71329116821289,-74.01013946533203
122643336,A2,CS/SSC/SSM permit,9/28/2020,1001409,MANHATTAN,101,100 CHURCH STREET,1,40.71329116821289,-74.01013946533203
123195363,A2,CS/SSC/SSM permit,3/13/2021,1001410,MANHATTAN,101,50 MURRAY STREET,1,40.71379089355469,-74.00950622558594
122974585,A1,CS/SSC/SSM permit,12/17/2020,1001429,MANHATTAN,101,79 WARREN STREET,1,40.71508026123047,-74.01045227050781
123032404,A1,CS/SSC/SSM permit,1/31/2021,1001582,MANHATTAN,101,121 CHAMBERS STREET,1,40.715511322021484,-74.00846099853516
103588565,A1,CS/SSC/SSM permit,6/1/2021,1001606,MANHATTAN,101,131 DUANE STREET,1,40.71638107299805,-74.0074462890625
121187624,A1,CS/SSC/SSM permit,4/1/2021,1001632,MANHATTAN,101,55 READE STREET,1,40.714698791503906,-74.00624084472656
123690201,A2,CS/SSC/SSM permit,4/1/2021,1001632,MANHATTAN,101,55 READE STREET,1,40.714698791503906,-74.00624084472656
121325841,A1,CS/SSC/SSM permit,10/23/2020,1001639,MANHATTAN,101,66 READE STREET,1,40.715240478515625,-74.00666046142578
110406347,A2,CS/SSC/SSM permit,10/23/2020,1001639,MANHATTAN,101,66 READE STREET,1,40.715240478515625,-74.00666046142578
120161617,A2,CS/SSC/SSM permit,10/23/2020,1001639,MANHATTAN,101,66 READE STREET,1,40.715240478515625,-74.00666046142578
121185831,A1,CS/SSC/SSM permit,11/11/2020,1001835,MANHATTAN,101,108 LEONARD STREET,1,40.71636962890625,-74.00338745117188
123599392,DM,CS/SSC/SSM permit,10/30/2020,1001841,MANHATTAN,101,360 BROADWAY,1,40.71718978881836,-74.00334167480469
123469086,A2,CS/SSC/SSM permit,3/21/2021,1001877,MANHATTAN,101,66 LEONARD STREET,1,40.717350006103516,-74.00565338134766
123525603,A2,CS/SSC/SSM permit,1/31/2021,1001883,MANHATTAN,101,93 WORTH STREET,1,40.71664047241211,-74.00486755371094
120954770,A1,CS/SSC/SSM permit,1/23/2021,1001905,MANHATTAN,101,361 BROADWAY,1,40.717498779296875,-74.00399017333984
122913062,A1,CS/SSC/SSM permit,11/1/2020,1001934,MANHATTAN,101,51 WHITE STREET,1,40.71826934814453,-74.00409698486328
121205392,A1,CS/SSC/SSM permit,3/6/2021,1002004,MANHATTAN,101,29 LEONARD STREET,1,40.718570709228516,-74.00727081298828
121193243,A1,CS/SSC/SSM permit,9/24/2020,1002009,MANHATTAN,101,17 LEONARD STREET,1,40.71881866455078,-74.00779724121094
104790460,A1,CS/SSC/SSM permit,9/30/2020,1002026,MANHATTAN,101,15 JAY STREET,1,40.718238830566406,-74.00981140136719
123225982,A1,CS/SSC/SSM permit,12/10/2020,1002070,MANHATTAN,101,18 HARRISON STREET,1,40.71894073486328,-74.00972747802734
120578311,A1,CS/SSC/SSM permit,1/31/2021,1002073,MANHATTAN,101,187 FRANKLIN STREET,1,40.71928024291992,-74.00982666015625
121325226,A1,CS/SSC/SSM permit,11/30/2020,1002140,MANHATTAN,101,120 HUDSON STREET,1,40.719791412353516,-74.0083236694336
121205034,A1,CS/SSC/SSM permit,11/4/2020,1002219,MANHATTAN,101,385 BROADWAY,1,40.718379974365234,-74.00308227539062
120786417,A1,CS/SSC/SSM permit,9/24/2020,1002323,MANHATTAN,101,396 BROADWAY,1,40.718360900878906,-74.00221252441406
104806104,A1,CS/SSC/SSM permit,3/10/2021,1002325,MANHATTAN,101,81 WALKER STREET,1,40.718040466308594,-74.00177001953125
120033132,A1,CS/SSC/SSM permit,1/27/2021,1002330,MANHATTAN,101,90 LAFAYETTE STREET,1,40.7175407409668,-74.00161743164062
122703878,A1,CS/SSC/SSM permit,1/1/2021,1002333,MANHATTAN,101,80 WHITE STREET,1,40.717830657958984,-74.00209045410156
123659601,DM,CS/SSC/SSM permit,11/30/2020,1002359,MANHATTAN,101,250 CANAL STREET,1,40.718101501464844,-74.00051879882812
121206462,NB,CS/SSC/SSM permit,6/11/2021,1002359,MANHATTAN,101,250 CANAL STREET,1,40.718101501464844,-74.00051879882812
123350391,NB,CS/SSC/SSM permit,4/9/2021,1002611,MANHATTAN,102,76 BOWERY,1,40.71686935424805,-73.99607849121094
121189374,NB,CS/SSC/SSM permit,8/28/2020,1002657,MANHATTAN,102,111 MULBERRY STREET,3,40.717559814453125,-73.99859619140625
123691273,A2,CS/SSC/SSM permit,10/1/2020,1002803,MANHATTAN,101,145 HUDSON STREET,1,40.7210693359375,-74.0086898803711
121189249,A1,CS/SSC/SSM permit,1/1/2021,1002831,MANHATTAN,101,67 VESTRY STREET,1,40.722740173339844,-74.01122283935547
140823866,A2,CS/SSC/SSM permit,12/26/2020,1002831,MANHATTAN,101,67 VESTRY STREET,1,40.722740173339844,-74.01122283935547
121193010,NB,CS/SSC/SSM permit,10/1/2020,1002927,MANHATTAN,101,456 GREENWICH STREET,2,40.72367858886719,-74.00995635986328
123467159,A2,CS/SSC/SSM permit,10/1/2020,1002927,MANHATTAN,101,456 GREENWICH STREET,1,40.72367858886719,-74.00995635986328
123173074,A1,CS/SSC/SSM permit,10/31/2020,1002934,MANHATTAN,102,75 VARICK STREET,1,40.72343826293945,-74.00682067871094
102513111,A1,CS/SSC/SSM permit,12/31/2020,1002984,MANHATTAN,108,325 CANAL STREET,1,40.72040939331055,-74.0028305053711
121183129,A1,CS/SSC/SSM permit,6/9/2021,1003019,MANHATTAN,102,455 BROADWAY,1,40.72077941894531,-74.0011215209961
140869692,A2,CS/SSC/SSM permit,6/5/2021,1003029,MANHATTAN,102,446 BROADWAY,1,40.72023010253906,-74.00074005126953
121204927,A1,CS/SSC/SSM permit,10/1/2020,1003029,MANHATTAN,102,446 BROADWAY,1,40.72023010253906,-74.00074005126953
122119803,A1,CS/SSC/SSM permit,9/1/2020,1003038,MANHATTAN,102,32 HOWARD STREET,1,40.719791412353516,-74.00057220458984
123541006,A2,CS/SSC/SSM permit,7/18/2021,1003049,MANHATTAN,102,151 GRAND STREET,1,40.719970703125,-73.99968719482422
122467678,A1,CS/SSC/SSM permit,7/18/2021,1003049,MANHATTAN,102,151 GRAND STREET,1,40.719970703125,-73.99968719482422
121203893,NB,CS/SSC/SSM permit,4/20/2021,1003074,MANHATTAN,102,185 GRAND STREET,1,40.719200134277344,-73.99756622314453
123265420,DM,CS/SSC/SSM permit,2/3/2021,1003260,MANHATTAN,103,140 HENRY ST,1,40.713130950927734,-73.99054718017578
122576738,NB,CS/SSC/SSM permit,12/31/2020,1003688,MANHATTAN,103,193 HENRY STREET,1,40.71377182006836,-73.98786926269531
122557928,NB,CS/SSC/SSM permit,6/8/2021,1003703,MANHATTAN,103,201 EAST BROADWAY,1,40.7140007019043,-73.98808288574219
122668292,A1,CS/SSC/SSM permit,9/3/2020,1003757,MANHATTAN,103,269 HENRY STREET,1,40.714080810546875,-73.98433685302734
123124662,A1,CS/SSC/SSM permit,12/31/2020,1003777,MANHATTAN,103,10 ELDRIDGE ST,1,40.71464157104492,-73.9935531616211
123416945,DM,CS/SSC/SSM permit,4/3/2021,1003818,MANHATTAN,103,11 ESSEX STREET,1,40.71508026123047,-73.99031066894531
121184137,A1,CS/SSC/SSM permit,2/17/2021,1003985,MANHATTAN,103,57 ALLEN STREET,1,40.71699142456055,-73.99195098876953
123174769,A1,CS/SSC/SSM permit,2/9/2021,1003991,MANHATTAN,103,48 ALLEN STREET,1,40.71651077270508,-73.9913330078125
121131355,A1,CS/SSC/SSM permit,1/31/2021,1004006,MANHATTAN,103,325 GRAND STREET,1,40.71696853637695,-73.9906005859375
121205908,A1,CS/SSC/SSM permit,7/21/2021,1004054,MANHATTAN,103,228 E BROADWAY,1,40.714599609375,-73.9867172241211
103648055,A2,CS/SSC/SSM permit,1/31/2021,1004062,MANHATTAN,103,525 EAST HOUSTON STREET,1,40.71826934814453,-73.97608947753906
123734931,DM,CS/SSC/SSM permit,1/13/2021,1004110,MANHATTAN,103,66 CLINTON ST,1,40.71934127807617,-73.98467254638672
123039808,NB,CS/SSC/SSM permit,8/20/2020,1004126,MANHATTAN,103,148 ATTORNEY STREET,1,40.72019958496094,-73.98335266113281
123883075,DM,CS/SSC/SSM permit,11/28/2020,1004155,MANHATTAN,103,60 NORFOLK STREET,1,40.7170295715332,-73.98777770996094
122613190,A1,CS/SSC/SSM permit,10/31/2020,1004165,MANHATTAN,103,112 SUFFOLK STREET,1,40.718780517578125,-73.98592376708984
121471629,A1,CS/SSC/SSM permit,9/20/2020,1004250,MANHATTAN,103,23 CLINTON STREET,1,40.72066116333008,-73.98455047607422
122098979,A1,CS/SSC/SSM permit,9/20/2020,1004274,MANHATTAN,103,171 ATTORNEY STREET,1,40.72090148925781,-73.98338317871094
122098960,A1,CS/SSC/SSM permit,9/14/2020,1004275,MANHATTAN,103,165 ATTORNEY STREET,1,40.72085189819336,-73.98348236083984
122098951,A1,CS/SSC/SSM permit,9/14/2020,1004276,MANHATTAN,103,163 ATTORNEY STREET,1,40.72079086303711,-73.9835205078125
121996849,A1,CS/SSC/SSM permit,9/14/2020,1004277,MANHATTAN,103,161 ATTORNEY STREET,1,40.72071838378906,-73.98355102539062
123706757,A1,CS/SSC/SSM permit,1/1/2021,1004481,MANHATTAN,103,264 EAST 7TH STREET,1,40.72330093383789,-73.97756958007812
123167447,NB,CS/SSC/SSM permit,8/5/2021,1004593,MANHATTAN,103,238 EAST 3RD STREET,3,40.72188949584961,-73.9817123413086
122661663,NB,CS/SSC/SSM permit,5/1/2021,1004656,MANHATTAN,103,650 EAST 6TH STREET,3,40.7234992980957,-73.9798583984375
122498243,A1,CS/SSC/SSM permit,6/18/2021,1004699,MANHATTAN,103,619 EAST 6 STREET,1,40.724220275878906,-73.98045349121094
123671981,DM,CS/SSC/SSM permit,11/6/2020,1004906,MANHATTAN,103,183 AVENUE B,1,40.7276611328125,-73.97899627685547
123535843,A2,CS/SSC/SSM permit,4/1/2021,1005160,MANHATTAN,103,301 EAST 10TH STREET,1,40.72782897949219,-73.98162841796875
121188231,A1,CS/SSC/SSM permit,11/12/2020,1005200,MANHATTAN,103,202 AVENUE A,1,40.72932052612305,-73.98079681396484
123717068,DM,CS/SSC/SSM permit,5/1/2021,1005201,MANHATTAN,103,204 AVENUE A,1,40.7293815612793,-73.98075103759766
121204963,NB,CS/SSC/SSM permit,10/1/2020,1005227,MANHATTAN,103,535 EAST 12TH STREET,3,40.72861099243164,-73.97960662841797
121606100,A1,CS/SSC/SSM permit,9/25/2020,1005311,MANHATTAN,103,95 RIVINGTON STREET,1,40.71995162963867,-73.98866271972656
123494664,A1,CS/SSC/SSM permit,3/27/2021,1005338,MANHATTAN,103,108 DELANCEY STREET,1,40.71897888183594,-73.98844146728516
123520555,A1,CS/SSC/SSM permit,1/12/2021,1005484,MANHATTAN,103,61 RIVINGTON STREET,1,40.7204704284668,-73.99034118652344
104822417,A1,CS/SSC/SSM permit,1/27/2021,1005569,MANHATTAN,103,293 BROOME STREET,1,40.71847152709961,-73.99202728271484
123215939,A1,CS/SSC/SSM permit,3/17/2021,1005618,MANHATTAN,103,143 EAST HOUSTON STREET,1,40.723018646240234,-73.989990234375
121205123,NB,CS/SSC/SSM permit,2/26/2021,1005635,MANHATTAN,103,145 BOWERY,2,40.71902084350586,-73.9942626953125
123178499,NB,CS/SSC/SSM permit,11/13/2020,1005718,MANHATTAN,103,199 CHRYSTIE STREET,1,40.72224044799805,-73.99210357666016
123455741,DM,CS/SSC/SSM permit,1/31/2021,1005734,MANHATTAN,103,24 1ST AVE,1,40.723758697509766,-73.98806762695312
123450014,A1,CS/SSC/SSM permit,4/19/2021,1005748,MANHATTAN,103,15 AVE A,1,40.722801208496094,-73.9862289428711
123578734,A1,CS/SSC/SSM permit,11/3/2020,1006204,MANHATTAN,103,84 2ND AVENUE,1,40.72650909423828,-73.9887924194336
121114524,A2,CS/SSC/SSM permit,10/11/2020,1006432,MANHATTAN,103,153 FIRST AVENUE,1,40.72858810424805,-73.98499298095703
123143213,A2,CS/SSC/SSM permit,12/27/2020,1006435,MANHATTAN,103,170 2 AVENUE,1,40.7300910949707,-73.98612976074219
122812527,A2,CS/SSC/SSM permit,5/15/2021,1006472,MANHATTAN,103,180 SECOND AVENUE,1,40.73054122924805,-73.9858627319336
123038033,A1,CS/SSC/SSM permit,5/15/2021,1006472,MANHATTAN,103,180 SECOND AVENUE,1,40.73054122924805,-73.9858627319336
123393791,A1,CS/SSC/SSM permit,4/1/2021,1006543,MANHATTAN,103,327 BOWERY,1,40.72570037841797,-73.9916763305664
123370921,A2,CS/SSC/SSM permit,1/31/2021,1006549,MANHATTAN,103,36 E. 3 STREET,1,40.72555160522461,-73.99022674560547
121203777,A1,CS/SSC/SSM permit,1/1/2021,1006572,MANHATTAN,103,74 EAST 4TH STREET,1,40.72629165649414,-73.99022674560547
123890566,A2,CS/SSC/SSM permit,1/1/2021,1006572,MANHATTAN,103,74 EAST 4TH STREET,1,40.72629165649414,-73.99022674560547
123205691,DM,CS/SSC/SSM permit,11/30/2020,1006735,MANHATTAN,103,23 3RD AVE,1,40.729530334472656,-73.98957061767578
122704644,A1,CS/SSC/SSM permit,2/22/2021,1006805,MANHATTAN,103,104 EAST 10TH STREET,1,40.73040008544922,-73.9886703491211
121186750,A1,CS/SSC/SSM permit,4/1/2021,1007046,MANHATTAN,102,38 GREENE ST,1,40.72169876098633,-74.00187683105469
123420422,A2,CS/SSC/SSM permit,12/17/2020,1007057,MANHATTAN,102,341 WEST BROADWAY,1,40.72251892089844,-74.00338745117188
123554359,A1,CS/SSC/SSM permit,4/24/2021,1007062,MANHATTAN,102,357 WEST BROADWAY,1,40.722900390625,-74.00299835205078
123297814,A1,CS/SSC/SSM permit,3/20/2021,1007079,MANHATTAN,102,51 GREENE STREET,1,40.72233963012695,-74.00192260742188
123473151,A1,CS/SSC/SSM permit,9/17/2020,1007080,MANHATTAN,102,47 GREENE STREET,1,40.722251892089844,-74.00199127197266
121784701,NB,CS/SSC/SSM permit,11/1/2020,1007085,MANHATTAN,102,74 GRAND STREET,1,40.722068786621094,-74.00263977050781
123730061,A2,CS/SSC/SSM permit,1/31/2021,1007135,MANHATTAN,102,172 ELIZABETH STREET,1,40.720951080322266,-73.9946517944336
123165831,A1,CS/SSC/SSM permit,4/20/2021,1007192,MANHATTAN,102,378 BROOME STREET,1,40.720550537109375,-73.99630737304688
123664560,A2,CS/SSC/SSM permit,4/20/2021,1007192,MANHATTAN,102,378 BROOME STREET,1,40.720550537109375,-73.99630737304688
123426970,A1,CS/SSC/SSM permit,10/5/2020,1007220,MANHATTAN,102,216 LAFAYETTE STREET,1,40.72193145751953,-73.99784088134766
121329204,A1,CS/SSC/SSM permit,4/1/2021,1007283,MANHATTAN,102,74 WOOSTER STREET,1,40.7235107421875,-74.00138092041016
121165130,A1,CS/SSC/SSM permit,10/11/2020,1007367,MANHATTAN,102,59 THOMPSON STREET,1,40.72420883178711,-74.00350189208984
123586627,A2,CS/SSC/SSM permit,12/31/2020,1007385,MANHATTAN,102,155 6TH AVENUE,1,40.72536087036133,-74.00491333007812
123376523,A1,CS/SSC/SSM permit,1/1/2021,1007393,MANHATTAN,102,204 ELIZABETH STREET,1,40.722068786621094,-73.994140625
123377862,A1,CS/SSC/SSM permit,1/1/2021,1007394,MANHATTAN,102,208 ELIZABETH STREET,1,40.722198486328125,-73.99408721923828
121188259,A1,CS/SSC/SSM permit,4/1/2021,1007399,MANHATTAN,102,216 BOWERY,1,40.721900939941406,-73.99382019042969
140800195,A2,CS/SSC/SSM permit,10/31/2020,1007525,MANHATTAN,102,50 PRINCE STREET,1,40.72325897216797,-73.99603271484375
123043679,A1,CS/SSC/SSM permit,3/19/2021,1007784,MANHATTAN,102,180 PRINCE STREET,1,40.72615051269531,-74.00215911865234
122186810,A1,CS/SSC/SSM permit,9/4/2020,1007833,MANHATTAN,102,9 VANDAM STREET,1,40.72650909423828,-74.00409698486328
123802821,A2,CS/SSC/SSM permit,9/4/2020,1007833,MANHATTAN,102,9 VANDAM STREET,1,40.72650909423828,-74.00409698486328
121157185,A1,CS/SSC/SSM permit,9/30/2020,1007851,MANHATTAN,102,242 ELIZABETH STREET,1,40.72330093383789,-73.99365234375
121190291,NB,CS/SSC/SSM permit,12/21/2020,1007873,MANHATTAN,102,258 BOWERY,1,40.72325134277344,-73.99331665039062
123727501,A2,CS/SSC/SSM permit,2/15/2021,1007924,MANHATTAN,102,283 MOTT STREET,1,40.724159240722656,-73.99466705322266
121333324,NB,CS/SSC/SSM permit,8/25/2020,1007981,MANHATTAN,102,151 MERCER STREET,1,40.725120544433594,-73.99849700927734
120943729,A2,CS/SSC/SSM permit,1/31/2021,1008089,MANHATTAN,102,40 KING STREET,1,40.7275505065918,-74.00433349609375
121326608,A1,CS/SSC/SSM permit,4/1/2021,1008106,MANHATTAN,102,19 CHARLTON STREET,1,40.72724914550781,-74.00406646728516
122669399,A1,CS/SSC/SSM permit,8/18/2020,1008129,MANHATTAN,102,21 1/2 KING STREET,1,40.727901458740234,-74.00361633300781
121187777,A1,CS/SSC/SSM permit,1/28/2021,1008133,MANHATTAN,102,41 KING STREET,1,40.72801971435547,-74.0044937133789
123424623,A2,CS/SSC/SSM permit,2/1/2021,1008136,MANHATTAN,102,51 MACDOUGAL STREET,1,40.72795867919922,-74.00248718261719
121233147,A1,CS/SSC/SSM permit,2/1/2021,1008136,MANHATTAN,102,51 MACDOUGAL STREET,1,40.72795867919922,-74.00248718261719
121190040,NB,CS/SSC/SSM permit,11/30/2020,1008181,MANHATTAN,102,308 MULBERRY STREET,1,40.72549057006836,-73.99439239501953
122342198,A2,CS/SSC/SSM permit,10/15/2020,1008182,MANHATTAN,102,36 BLEECKER STREET,1,40.725460052490234,-73.99408721923828
123151908,A1,CS/SSC/SSM permit,9/21/2020,1008376,MANHATTAN,102,29 DOWNING STREET,1,40.72956085205078,-74.00346374511719
123046257,A1,CS/SSC/SSM permit,1/1/2021,1008479,MANHATTAN,102,39 GREAT JONES STREET,1,40.72666931152344,-73.99295043945312
123375908,A2,CS/SSC/SSM permit,6/29/2021,1008507,MANHATTAN,102,686 BROADWAY,1,40.727909088134766,-73.99424743652344
122929493,A1,CS/SSC/SSM permit,1/3/2021,1008714,MANHATTAN,102,183 BLEECKER STREET,1,40.729190826416016,-74.00080108642578
123432918,A2,CS/SSC/SSM permit,12/18/2020,1008840,MANHATTAN,102,300 MERCER STREET,1,40.73006820678711,-73.99344635009766
140854047,A3,CS/SSC/SSM permit,3/1/2021,1008848,MANHATTAN,102,6 EAST 8TH STREET,1,40.7318115234375,-73.995849609375
123451950,A2,CS/SSC/SSM permit,8/17/2020,1008862,MANHATTAN,102,12 MACDOUGAL ALLEY,1,40.7322998046875,-73.99781799316406
123744537,A2,CS/SSC/SSM permit,3/1/2021,1008875,MANHATTAN,102,33 WASHINGTON SQUARE WEST,1,40.7315788269043,-73.99957275390625
123660261,A2,CS/SSC/SSM permit,10/31/2020,1008952,MANHATTAN,102,770 BROADWAY,1,40.73059844970703,-73.99152374267578
122555225,A2,CS/SSC/SSM permit,1/10/2021,1008962,MANHATTAN,103,115 EAST 9TH STREET,1,40.7305793762207,-73.9896011352539
121188133,NB,CS/SSC/SSM permit,12/23/2020,1009108,MANHATTAN,102,799 BROADWAY,1,40.73244094848633,-73.99181365966797
140850791,A2,CS/SSC/SSM permit,10/23/2020,1009273,MANHATTAN,102,45 5TH AVENUE,1,40.734161376953125,-73.99456024169922
123459060,A2,CS/SSC/SSM permit,10/14/2020,1009384,MANHATTAN,102,30 EAST 13 STREET,1,40.73460006713867,-73.99282836914062
123875814,A2,CS/SSC/SSM permit,4/1/2021,1009429,MANHATTAN,102,20 5TH AVENUE,1,40.73283004760742,-73.99639129638672
122371245,A1,CS/SSC/SSM permit,12/15/2020,1009468,MANHATTAN,102,36 WEST 10 STREET,1,40.73395919799805,-73.99727630615234
122739180,A1,CS/SSC/SSM permit,4/1/2021,1009471,MANHATTAN,102,30 WEST 10TH STREET,1,40.73387908935547,-73.99710845947266
122962561,A1,CS/SSC/SSM permit,4/15/2021,1009546,MANHATTAN,102,21 WEST 10TH STREET,1,40.7341194152832,-73.99653625488281
122035476,A2,CS/SSC/SSM permit,12/18/2020,1009555,MANHATTAN,102,39 WEST 10 STREET,1,40.73442077636719,-73.99725341796875
121825294,A1,CS/SSC/SSM permit,12/15/2020,1009555,MANHATTAN,102,39 WEST 10 STREET,1,40.73442077636719,-73.99725341796875
122656535,A1,CS/SSC/SSM permit,12/31/2020,1009726,MANHATTAN,102,34 DOMINICK STREET,1,40.72489929199219,-74.00668334960938
123500595,A1,CS/SSC/SSM permit,11/30/2020,1009733,MANHATTAN,102,574 BROOME STREET,1,40.72467041015625,-74.00675201416016
123671972,DM,CS/SSC/SSM permit,12/31/2020,1009742,MANHATTAN,102,304 HUDSON STREET,1,40.72618103027344,-74.00704193115234
121205864,NB,CS/SSC/SSM permit,12/22/2020,1009742,MANHATTAN,102,310 HUDSON STREET,2,40.72618103027344,-74.00704193115234
123671963,DM,CS/SSC/SSM permit,12/31/2020,1009743,MANHATTAN,102,50 VAN DAM STREET,1,40.72618103027344,-74.00704193115234
123671954,DM,CS/SSC/SSM permit,12/31/2020,1009744,MANHATTAN,102,143 VARICK STREET,1,40.72618103027344,-74.00704193115234
123680828,A2,CS/SSC/SSM permit,12/31/2020,1009746,MANHATTAN,102,330 HUDSON STREET,1,40.72692108154297,-74.00691223144531
121187731,NB,CS/SSC/SSM permit,9/1/2020,1009751,MANHATTAN,102,77 CHARLTON STREET,1,40.72761154174805,-74.00639343261719
103642033,A2,CS/SSC/SSM permit,10/31/2020,1009757,MANHATTAN,102,16 CLARKSON STREET,1,40.72904968261719,-74.00615692138672
123881139,A2,CS/SSC/SSM permit,11/26/2020,1009782,MANHATTAN,102,68 MORTON STREET,1,40.73078918457031,-74.00636291503906
123416794,A1,CS/SSC/SSM permit,4/15/2021,1009783,MANHATTAN,102,66 MORTON STREET,1,40.73067855834961,-74.00627899169922
123879240,DM,CS/SSC/SSM permit,6/11/2021,1010310,MANHATTAN,102,289 HUDSON STREET,1,40.725711822509766,-74.00782012939453
120383049,A1,CS/SSC/SSM permit,12/8/2020,1010329,MANHATTAN,101,465 WASHINGTON STREET,1,40.724639892578125,-74.00993347167969
123460085,A2,CS/SSC/SSM permit,11/25/2020,1010329,MANHATTAN,101,465 WASHINGTON STREET,1,40.724639892578125,-74.00993347167969
123564990,A1,CS/SSC/SSM permit,3/24/2021,1010337,MANHATTAN,101,142 WATTS STREET,1,40.72431945800781,-74.01006317138672
123780337,A2,CS/SSC/SSM permit,12/31/2020,1010356,MANHATTAN,102,550 WASHINGTON STREET,1,40.728580474853516,-74.00997924804688
123156057,A1,CS/SSC/SSM permit,9/15/2020,1010356,MANHATTAN,102,550 WASHINGTON STREET,1,40.728580474853516,-74.00997924804688
123414778,A2,CS/SSC/SSM permit,10/30/2020,1010356,MANHATTAN,102,550 WASHINGTON STREET,1,40.728580474853516,-74.00997924804688
123584013,A1,CS/SSC/SSM permit,12/31/2020,1010356,MANHATTAN,102,550 WASHINGTON STREET,1,40.728580474853516,-74.00997924804688
123541541,A2,CS/SSC/SSM permit,12/31/2020,1010356,MANHATTAN,102,550 WASHINGTON STREET,1,40.728580474853516,-74.00997924804688
123803170,A2,CS/SSC/SSM permit,12/31/2020,1010356,MANHATTAN,102,550 WASHINGTON STREET,1,40.728580474853516,-74.00997924804688
123879749,A2,CS/SSC/SSM permit,12/31/2020,1010356,MANHATTAN,102,550 WASHINGTON STREET,1,40.728580474853516,-74.00997924804688
121190237,A1,CS/SSC/SSM permit,12/22/2020,1010360,MANHATTAN,102,100 VANDAM STREET,1,40.72650909423828,-74.00858306884766
121185742,A1,CS/SSC/SSM permit,2/4/2021,1010366,MANHATTAN,102,535 GREENWICH STREET,1,40.72690963745117,-74.00863647460938
121021376,A2,CS/SSC/SSM permit,2/4/2021,1010366,MANHATTAN,102,535 GREENWICH STREET,1,40.72690963745117,-74.00863647460938
140918443,A2,CS/SSC/SSM permit,10/1/2020,1010378,MANHATTAN,102,345 HUDSON ST,1,40.72774887084961,-74.00785827636719
123153559,A1,CS/SSC/SSM permit,2/28/2021,1010396,MANHATTAN,102,39 CLARKSON ST,1,40.72978973388672,-74.00772857666016
123431740,A2,CS/SSC/SSM permit,3/18/2021,1010599,MANHATTAN,102,158 WEST 13TH STREET,1,40.73746109008789,-73.99981689453125
123704401,A2,CS/SSC/SSM permit,1/30/2021,1010619,MANHATTAN,102,101 WEST 12TH STREET,1,40.736480712890625,-73.99797821044922
120903282,A2,CS/SSC/SSM permit,2/4/2021,1010662,MANHATTAN,102,153 WEST 13 STREET,1,40.73773956298828,-73.9992904663086
110408513,A1,CS/SSC/SSM permit,9/30/2020,1010667,MANHATTAN,102,117 SEVENTH AVENUE SOUTH,1,40.73411178588867,-74.00224304199219
123300169,A1,CS/SSC/SSM permit,1/1/2021,1010669,MANHATTAN,102,182 WAVERLY PLACE,1,40.73429870605469,-74.00157928466797
123581604,A2,CS/SSC/SSM permit,10/31/2020,1010692,MANHATTAN,102,1 CHRISTOPHER STREET,1,40.73419952392578,-74.0000228881836
123350104,A1,CS/SSC/SSM permit,4/1/2021,1010938,MANHATTAN,102,59 GREENWICH AVE,1,40.73603057861328,-74.00105285644531
140734837,A2,CS/SSC/SSM permit,10/31/2020,1010938,MANHATTAN,102,59 GREENWICH AVENUE,1,40.73603057861328,-74.00105285644531
123736724,A2,CS/SSC/SSM permit,10/3/2020,1010953,MANHATTAN,102,34 BANK STREET,1,40.73677062988281,-74.0028305053711
122115969,A1,CS/SSC/SSM permit,7/18/2021,1010985,MANHATTAN,102,10 BANK STREET,1,40.736961364746094,-74.00186920166016
123379904,A1,CS/SSC/SSM permit,6/1/2021,1011013,MANHATTAN,102,246 WEST 12 STREET,1,40.737449645996094,-74.00251007080078
122119723,A1,CS/SSC/SSM permit,1/21/2021,1011047,MANHATTAN,102,107 GREENWICH AVENUE,1,40.73788070678711,-74.00213623046875
123490338,A1,CS/SSC/SSM permit,11/26/2020,1011120,MANHATTAN,102,225 WEST 13 STREET,1,40.73857879638672,-74.00126647949219
123480982,A2,CS/SSC/SSM permit,10/31/2020,1011184,MANHATTAN,102,526 HUDSON STREET,1,40.73405075073242,-74.00594329833984
121291538,A1,CS/SSC/SSM permit,12/30/2020,1011276,MANHATTAN,102,77 CHARLES STREET,1,40.73493957519531,-74.0042495727539
122920893,A1,CS/SSC/SSM permit,3/27/2021,1011278,MANHATTAN,102,81 CHARLES STREET,1,40.73490905761719,-74.00438690185547
121276724,A1,CS/SSC/SSM permit,12/29/2020,1011306,MANHATTAN,102,278 WEST 11TH STREET,1,40.7358283996582,-74.00457763671875
121187376,A1,CS/SSC/SSM permit,10/15/2020,1011314,MANHATTAN,102,282 WEST 4TH STREET,1,40.73601150512695,-74.00364685058594
122765016,A1,CS/SSC/SSM permit,8/7/2021,1011350,MANHATTAN,102,58 BANK STREET,1,40.736629486083984,-74.00401306152344
121204669,A1,CS/SSC/SSM permit,10/2/2020,1011351,MANHATTAN,102,56 BANK STREET,1,40.736690521240234,-74.00393676757812
123867565,A2,CS/SSC/SSM permit,3/15/2021,1011361,MANHATTAN,102,265 WEST 11 STREET,1,40.7363395690918,-74.00408935546875
122639449,A1,CS/SSC/SSM permit,5/19/2021,1011362,MANHATTAN,102,269 WEST 11TH STREET,1,40.73632049560547,-74.00425720214844
121333912,A1,CS/SSC/SSM permit,6/3/2021,1011751,MANHATTAN,102,271 WEST 10TH STREET,1,40.73371887207031,-74.0077896118164
122864613,NB,CS/SSC/SSM permit,6/1/2021,1011870,MANHATTAN,102,145 PERRY STREET,3,40.735069274902344,-74.0081787109375
123718183,A2,CS/SSC/SSM permit,4/10/2021,1011915,MANHATTAN,102,769 GREENWICH STREET,1,40.73632049560547,-74.00652313232422
121515182,A1,CS/SSC/SSM permit,8/18/2020,1011991,MANHATTAN,102,403 WEST STREET,1,40.73374938964844,-74.00981903076172
123013078,A2,CS/SSC/SSM permit,1/31/2021,1011991,MANHATTAN,102,404 WEST STREET,1,40.73374938964844,-74.00981903076172
123834627,A1,CS/SSC/SSM permit,6/1/2021,1012096,MANHATTAN,102,775 WASHINGTON STREET,1,40.73775100708008,-74.00787353515625
123394086,A1,CS/SSC/SSM permit,12/31/2020,1012147,MANHATTAN,102,75 JANE STREET,1,40.738319396972656,-74.007080078125
122660851,A1,CS/SSC/SSM permit,10/15/2020,1012151,MANHATTAN,102,85 JANE STREET,1,40.738319396972656,-74.00750732421875
123173715,A2,CS/SSC/SSM permit,10/15/2020,1012151,MANHATTAN,102,85 JANE STREET,1,40.738319396972656,-74.00750732421875
122781873,A2,CS/SSC/SSM permit,10/2/2020,1012196,MANHATTAN,102,55 GANSEVOORT STREET,1,40.73955154418945,-74.0071029663086
122816863,A1,CS/SSC/SSM permit,10/2/2020,1012196,MANHATTAN,102,55 GANSEVOORT STREET,1,40.73955154418945,-74.0071029663086
121204589,A1,CS/SSC/SSM permit,10/29/2020,1012239,MANHATTAN,102,405 WEST 13TH STREET,1,40.7407112121582,-74.00633239746094
121235350,A1,CS/SSC/SSM permit,1/31/2021,1012253,MANHATTAN,104,29 11TH AVENUE,1,40.743560791015625,-74.0105972290039
121188918,NB,CS/SSC/SSM permit,2/27/2021,1012272,MANHATTAN,104,601 WEST 29TH STREET,3,40.753231048583984,-74.00498962402344
121204874,NB,CS/SSC/SSM permit,4/1/2021,1012275,MANHATTAN,104,606 WEST 30 STREET,2,40.75339889526367,-74.0047607421875
121190601,NB,CS/SSC/SSM permit,11/30/2020,1012291,MANHATTAN,104,532 WEST 20TH STREET,1,40.74626159667969,-74.00717163085938
121204990,A1,CS/SSC/SSM permit,10/1/2020,1012308,MANHATTAN,104,541 WEST 21 STREET,1,40.747398376464844,-74.00689697265625
122547583,NB,CS/SSC/SSM permit,9/1/2020,1012317,MANHATTAN,104,542 WEST 22 STREET,1,40.747650146484375,-74.00672912597656
123879231,DM,CS/SSC/SSM permit,6/26/2021,1012547,MANHATTAN,104,118 10TH AVENUE,1,40.74419021606445,-74.00630950927734
122979401,A2,CS/SSC/SSM permit,1/31/2021,1012575,MANHATTAN,104,435 WEST 19 STREET,1,40.744808197021484,-74.00440979003906
122461512,A2,CS/SSC/SSM permit,1/31/2021,1012575,MANHATTAN,104,435 WEST 19 STREET,1,40.744808197021484,-74.00440979003906
122239504,A1,CS/SSC/SSM permit,12/19/2020,1012575,MANHATTAN,104,435 WEST 19TH STREET,1,40.744808197021484,-74.00440979003906
122665464,DM,CS/SSC/SSM permit,4/3/2021,1012835,MANHATTAN,104,432 WEST 31ST STREET,1,40.75196075439453,-73.9993667602539
122674935,DM,CS/SSC/SSM permit,4/3/2021,1012835,MANHATTAN,104,434 WEST 31ST STREET,1,40.75196075439453,-73.9993667602539
123848907,A2,CS/SSC/SSM permit,12/31/2020,1012843,MANHATTAN,104,460 WEST 34TH STREET,1,40.754051208496094,-73.99897766113281
123784397,A2,CS/SSC/SSM permit,12/31/2020,1012843,MANHATTAN,104,460 WEST 34TH STREET,1,40.754051208496094,-73.99897766113281
121205212,A1,CS/SSC/SSM permit,12/31/2020,1012843,MANHATTAN,104,471 WEST 33RD STREET,1,40.754051208496094,-73.99897766113281
122783201,A2,CS/SSC/SSM permit,4/1/2021,1012857,MANHATTAN,104,455 W 34TH ST,1,40.75455093383789,-73.99836730957031
122865319,NB,CS/SSC/SSM permit,6/25/2021,1012975,MANHATTAN,104,441 WEST 37TH STREET,2,40.756248474121094,-73.99664306640625
122872481,A1,CS/SSC/SSM permit,4/1/2021,1013026,MANHATTAN,104,320 W 15 ST,1,40.74065017700195,-74.0030517578125
123801519,A2,CS/SSC/SSM permit,10/20/2020,1013043,MANHATTAN,104,111 EIGHTH AVENUE,1,40.74135971069336,-74.0031967163086
123393201,A1,CS/SSC/SSM permit,11/15/2020,1013196,MANHATTAN,104,367 WEST 19TH STREET,1,40.744049072265625,-74.00260162353516
122851486,A2,CS/SSC/SSM permit,10/29/2020,1013205,MANHATTAN,104,347 WEST 19TH STREET,1,40.74372863769531,-74.001953125
123060757,A1,CS/SSC/SSM permit,3/8/2021,1013225,MANHATTAN,104,318 WEST 20TH STREET,1,40.74365997314453,-74.00096893310547
122814115,A1,CS/SSC/SSM permit,1/31/2021,1013233,MANHATTAN,104,334 WEST 20 STREET,1,40.743858337402344,-74.0014419555664
140856189,A2,CS/SSC/SSM permit,11/21/2020,1013330,MANHATTAN,104,348 WEST 22 STREET,1,40.745269775390625,-74.00106811523438
123561369,NB,CS/SSC/SSM permit,7/1/2021,1013491,MANHATTAN,104,300 WEST 30 STREET,3,40.74964904785156,-73.99571990966797
123845964,A2,CS/SSC/SSM permit,8/9/2021,1013553,MANHATTAN,104,330 WEST 34 STREET,1,40.752601623535156,-73.9955062866211
121507208,A1,CS/SSC/SSM permit,6/25/2021,1013566,MANHATTAN,104,335 WEST 35TH STREET,1,40.753658294677734,-73.99430847167969
123851796,NB,CS/SSC/SSM permit,2/28/2021,1013572,MANHATTAN,104,319 WEST 35TH STREET,1,40.75341033935547,-73.99371337890625
123140127,A2,CS/SSC/SSM permit,10/26/2020,1013572,MANHATTAN,104,319 WEST 35TH STREET,1,40.75341033935547,-73.99371337890625
123140145,A2,CS/SSC/SSM permit,10/26/2020,1013573,MANHATTAN,104,317 WEST 35TH STREET,1,40.75341033935547,-73.99371337890625
123781648,A2,CS/SSC/SSM permit,3/20/2021,1013574,MANHATTAN,104,315 WEST 35TH STREET,1,40.75334167480469,-73.99356079101562
123780097,A2,CS/SSC/SSM permit,3/29/2021,1013599,MANHATTAN,104,535 8TH AVENUE,1,40.75400161743164,-73.9925537109375
123817389,A2,CS/SSC/SSM permit,6/25/2021,1013622,MANHATTAN,104,545 8TH AVENUE,1,40.75450134277344,-73.99217987060547
140842818,A3,CS/SSC/SSM permit,4/1/2021,1013623,MANHATTAN,104,555 8TH AVENUE,1,40.75468063354492,-73.99214172363281
121188801,A1,CS/SSC/SSM permit,3/1/2021,1013637,MANHATTAN,104,341 WEST 38TH STREET,1,40.755699157714844,-73.99339294433594
123127311,A2,CS/SSC/SSM permit,9/30/2020,1013646,MANHATTAN,104,589 8 AVENUE,1,40.755340576171875,-73.99159240722656
123834501,DM,CS/SSC/SSM permit,5/1/2021,1013700,MANHATTAN,104,355 WEST 39 STREET,1,40.75651931762695,-73.99349975585938
123126241,A2,CS/SSC/SSM permit,3/1/2021,1013711,MANHATTAN,104,80 8 AVENUE,1,40.73986053466797,-74.0020523071289
121189052,NB,CS/SSC/SSM permit,6/18/2021,1013740,MANHATTAN,104,214 WEST 15TH STREET,2,40.73942184448242,-74.00012969970703
123405494,DM,CS/SSC/SSM permit,11/30/2020,1013740,MANHATTAN,104,214 WEST 15TH STREET,1,40.73942184448242,-74.00012969970703
123405485,DM,CS/SSC/SSM permit,11/30/2020,1013741,MANHATTAN,104,216 WEST 15TH STREET,1,40.73944854736328,-74.00021362304688
122668684,A1,CS/SSC/SSM permit,12/31/2020,1013789,MANHATTAN,104,246 WEST 16 STREET,1,40.74053955078125,-74.00089263916016
123804320,A2,CS/SSC/SSM permit,3/25/2021,1013854,MANHATTAN,104,212 WEST 18TH STREET,1,40.741050720214844,-73.99874877929688
122365485,A2,CS/SSC/SSM permit,10/5/2020,1013881,MANHATTAN,104,209 WEST 18TH STREET,1,40.74148941040039,-73.99832153320312
123553573,A2,CS/SSC/SSM permit,11/30/2020,1013885,MANHATTAN,104,250 WEST 19TH STREET,1,40.742088317871094,-73.99906921386719
121186144,A1,CS/SSC/SSM permit,10/31/2020,1014031,MANHATTAN,104,217 WEST 20TH STREET,1,40.742759704589844,-73.9977798461914
123737028,A1,CS/SSC/SSM permit,12/23/2020,1014049,MANHATTAN,104,240 WEST 21ST STREET,1,40.74330139160156,-73.99836730957031
121991620,A1,CS/SSC/SSM permit,4/1/2021,1014081,MANHATTAN,104,224 WEST 22 ST,1,40.74361038208008,-73.99714660644531
121189472,A1,CS/SSC/SSM permit,5/26/2021,1014109,MANHATTAN,104,259 WEST 22 STREET,1,40.744361877441406,-73.99775695800781
122143457,A1,CS/SSC/SSM permit,11/8/2020,1014260,MANHATTAN,105,211 WEST 28TH STREET,1,40.74769973754883,-73.993896484375
121205105,NB,CS/SSC/SSM permit,6/25/2021,1014262,MANHATTAN,105,322 7TH AVENUE,3,40.74747848510742,-73.99358367919922
122539324,A2,CS/SSC/SSM permit,3/17/2021,1014282,MANHATTAN,105,245 WEST 29TH STREET,1,40.7487907409668,-73.99453735351562
122259359,A2,CS/SSC/SSM permit,3/17/2021,1014282,MANHATTAN,105,245 WEST 29TH STREET,1,40.7487907409668,-73.99453735351562
123764480,A2,CS/SSC/SSM permit,10/31/2020,1014387,MANHATTAN,105,1 PENN PLAZA,1,40.751258850097656,-73.99237060546875
123821454,A1,CS/SSC/SSM permit,7/1/2021,1014387,MANHATTAN,105,1 PENN PLAZA,1,40.751258850097656,-73.99237060546875
121228055,A2,CS/SSC/SSM permit,11/30/2020,1014402,MANHATTAN,105,225 WEST 34TH STREET,1,40.751869201660156,-73.99170684814453
123541471,A2,CS/SSC/SSM permit,9/3/2020,1014409,MANHATTAN,105,458 7 AVENUE,1,40.751609802246094,-73.99049377441406
123847668,A2,CS/SSC/SSM permit,5/21/2021,1014415,MANHATTAN,105,240 WEST 35 STREET,1,40.752140045166016,-73.99185180664062
123352898,A2,CS/SSC/SSM permit,10/9/2020,1014424,MANHATTAN,105,247 WEST 35TH STREET,1,40.75257873535156,-73.99175262451172
123354397,A3,CS/SSC/SSM permit,9/30/2020,1014459,MANHATTAN,105,500 7TH AVENUE,1,40.7534294128418,-73.98969268798828
122330931,A2,CS/SSC/SSM permit,12/4/2020,1014464,MANHATTAN,105,242 WEST 38TH STREET,1,40.753910064697266,-73.99028778076172
123464866,A2,CS/SSC/SSM permit,9/30/2020,1014489,MANHATTAN,105,250 WEST 39TH STREET,1,40.75471878051758,-73.9903335571289
140842630,A2,CS/SSC/SSM permit,11/3/2020,1014490,MANHATTAN,105,260 WEST 39TH STREET,1,40.754878997802734,-73.99067687988281
123590122,A2,CS/SSC/SSM permit,1/31/2021,1014497,MANHATTAN,105,257 WEST 39TH STREET,1,40.75524139404297,-73.99037170410156
140876014,A2,CS/SSC/SSM permit,12/18/2020,1014505,MANHATTAN,105,202 WEST 40 STREET,1,40.754791259765625,-73.98854064941406
123174803,NB,CS/SSC/SSM permit,10/17/2020,1014526,MANHATTAN,104,531 SIXTH AVENUE,1,40.73768997192383,-73.99696350097656
123010106,A1,CS/SSC/SSM permit,11/30/2020,1014530,MANHATTAN,104,100 WEST 15TH STREET,1,40.73807144165039,-73.9968032836914
123193383,A2,CS/SSC/SSM permit,10/31/2020,1014554,MANHATTAN,104,127 WEST 15TH STREET,1,40.738731384277344,-73.99736785888672
122288602,A1,CS/SSC/SSM permit,1/8/2021,1014557,MANHATTAN,104,121 WEST 15TH STREET,1,40.7386589050293,-73.99717712402344
120794541,A2,CS/SSC/SSM permit,1/31/2021,1014572,MANHATTAN,104,161 WEST 16TH STREET,1,40.7399787902832,-73.99823760986328
122336846,A1,CS/SSC/SSM permit,11/22/2020,1014648,MANHATTAN,104,119 7TH AVENUE,1,40.74052810668945,-73.99784088134766
123885867,A2,CS/SSC/SSM permit,11/22/2020,1014648,MANHATTAN,104,119 7TH AVENUE,1,40.74052810668945,-73.99784088134766
123069776,A2,CS/SSC/SSM permit,10/31/2020,1015000,MANHATTAN,104,275 SEVENTH AVENUE,1,40.745540618896484,-73.9941635131836
123118884,NB,CS/SSC/SSM permit,8/5/2021,1015022,MANHATTAN,104,128 WEST 26TH STREET,3,40.7451286315918,-73.99278259277344
123710635,A2,CS/SSC/SSM permit,12/31/2020,1015038,MANHATTAN,105,125 WEST 26 STREET,1,40.745399475097656,-73.99224853515625
102670281,A1,CS/SSC/SSM permit,12/31/2020,1015078,MANHATTAN,105,801 6 AVENUE,1,40.74576950073242,-73.99104309082031
123329521,NB,CS/SSC/SSM permit,1/21/2021,1015090,MANHATTAN,105,132 W 28 STREET,1,40.7464485168457,-73.99207305908203
123816638,A2,CS/SSC/SSM permit,9/10/2020,1015244,MANHATTAN,105,1370 BROADWAY,1,40.75178909301758,-73.9871597290039
123815835,A2,CS/SSC/SSM permit,9/10/2020,1015244,MANHATTAN,105,1370 BROADWAY,1,40.75178909301758,-73.9871597290039
140906447,A2,CS/SSC/SSM permit,12/31/2020,1015253,MANHATTAN,105,501 7TH AVENUE,1,40.75284957885742,-73.98856353759766
123703581,A2,CS/SSC/SSM permit,12/13/2020,1015254,MANHATTAN,105,1375 BROADWAY,1,40.75257110595703,-73.9878921508789
123578636,A2,CS/SSC/SSM permit,1/31/2021,1015266,MANHATTAN,105,1400 BROADWAY,1,40.752960205078125,-73.98668670654297
123697124,A3,CS/SSC/SSM permit,1/7/2021,1015273,MANHATTAN,105,108 WEST  39 STREET,1,40.75299072265625,-73.98622131347656
123830355,A2,CS/SSC/SSM permit,4/1/2021,1015292,MANHATTAN,105,96 5TH AVENUE,1,40.73666000366211,-73.99363708496094
121186448,NB,CS/SSC/SSM permit,4/13/2021,1015293,MANHATTAN,105,20 WEST 15 STREET,1,40.73701095581055,-73.99437713623047
123478771,A2,CS/SSC/SSM permit,12/31/2020,1015394,MANHATTAN,105,114 FIFTH AVENUE,1,40.737918853759766,-73.99278259277344
122979330,A1,CS/SSC/SSM permit,7/1/2021,1015457,MANHATTAN,105,12 WEST 19 STREET,1,40.739280700683594,-73.99236297607422
121204080,A1,CS/SSC/SSM permit,6/29/2021,1015492,MANHATTAN,105,23 WEST 20TH STREET,1,40.740509033203125,-73.99237823486328
123440936,A2,CS/SSC/SSM permit,12/31/2020,1015492,MANHATTAN,105,23 WEST 20TH STREET,1,40.740509033203125,-73.99237823486328
123129266,A1,CS/SSC/SSM permit,10/8/2020,1015509,MANHATTAN,105,46 WEST 21ST STREET,1,40.740989685058594,-73.99281311035156
121188963,A1,CS/SSC/SSM permit,7/1/2021,1015535,MANHATTAN,105,164 FIFTH AVENUE,1,40.74066162109375,-73.99067687988281
123822042,A1,CS/SSC/SSM permit,1/1/2021,1015541,MANHATTAN,105,28 WEST 22ND STREET,1,40.741371154785156,-73.99183654785156
123880586,A2,CS/SSC/SSM permit,3/4/2021,1015608,MANHATTAN,105,36 WEST 25TH STREET,1,40.743499755859375,-73.99082946777344
123821098,A2,CS/SSC/SSM permit,12/27/2020,1015650,MANHATTAN,105,220 5 AVENUE,1,40.74372863769531,-73.98845672607422
121204419,NB,CS/SSC/SSM permit,6/17/2021,1015751,MANHATTAN,105,842 6 AVENUE,2,40.746849060058594,-73.98947143554688
123666586,A2,CS/SSC/SSM permit,10/31/2020,1015805,MANHATTAN,105,1250 BROADWAY,1,40.74776840209961,-73.98787689208984
121204231,A1,CS/SSC/SSM permit,10/31/2020,1015805,MANHATTAN,105,1250 BROADWAY,1,40.74776840209961,-73.98787689208984
123308893,A2,CS/SSC/SSM permit,8/31/2020,1015862,MANHATTAN,105,350 FIFTH AVENUE,1,40.748451232910156,-73.98571014404297
123158741,A2,CS/SSC/SSM permit,10/31/2020,1015862,MANHATTAN,105,350 FIFTH AVENUE,1,40.748451232910156,-73.98571014404297
123193034,DM,CS/SSC/SSM permit,11/30/2020,1015893,MANHATTAN,105,25 WEST 35 STREET,1,40.74985885620117,-73.98528289794922
123021988,DM,CS/SSC/SSM permit,11/30/2020,1015894,MANHATTAN,105,23 WEST 35 STREET,1,40.74982833862305,-73.9852066040039
123303059,A1,CS/SSC/SSM permit,1/12/2021,1015895,MANHATTAN,105,21 WEST 35TH STREET,1,40.74980163574219,-73.98515319824219
140767739,A2,CS/SSC/SSM permit,1/1/2021,1015919,MANHATTAN,105,990 AVENUE OF AMERICAS,1,40.751258850097656,-73.98628234863281
123673355,DM,CS/SSC/SSM permit,12/31/2020,1015976,MANHATTAN,105,32 WEST 38TH STREET,1,40.75143814086914,-73.98445129394531
123212692,A2,CS/SSC/SSM permit,3/29/2021,1015997,MANHATTAN,105,29 WEST 38TH STREET,1,40.75185012817383,-73.98426055908203
140827078,A2,CS/SSC/SSM permit,12/31/2020,1016004,MANHATTAN,105,424 FIFTH AVENUE,1,40.75149917602539,-73.98306274414062
123393265,A2,CS/SSC/SSM permit,12/31/2020,1016014,MANHATTAN,105,42 WEST 39TH STREET,1,40.75226974487305,-73.98448944091797
123111952,NB,CS/SSC/SSM permit,1/7/2021,1016018,MANHATTAN,105,58 WEST 39TH STREET,1,40.75246047973633,-73.98493957519531
123387290,A2,CS/SSC/SSM permit,1/29/2021,1016035,MANHATTAN,105,55 WEST 39 STREET,1,40.75286102294922,-73.98475646972656
140878977,A2,CS/SSC/SSM permit,5/23/2021,1016057,MANHATTAN,105,54 WEST 40TH STREET,1,40.75297164916992,-73.98423767089844
140788440,A2,CS/SSC/SSM permit,1/31/2021,1016079,MANHATTAN,105,79 5 AVE,1,40.736968994140625,-73.99239349365234
123774497,A1,CS/SSC/SSM permit,6/30/2021,1016152,MANHATTAN,105,230 PARK AVENUE SOUTH,1,40.737701416015625,-73.98876190185547
123502183,A1,CS/SSC/SSM permit,5/1/2021,1016154,MANHATTAN,105,888 BROADWAY,1,40.73814010620117,-73.98970031738281
123730953,A2,CS/SSC/SSM permit,3/25/2021,1016278,MANHATTAN,105,175 FIFTH AVENUE,1,40.740989685058594,-73.9896469116211
123699257,A2,CS/SSC/SSM permit,3/1/2021,1016286,MANHATTAN,105,300 PARK AVENUE SOUTH,1,40.73984909057617,-73.98700714111328
123069918,A2,CS/SSC/SSM permit,11/12/2020,1016294,MANHATTAN,105,30 EAST 23RD STREET,1,40.74045944213867,-73.98776245117188
123887455,A2,CS/SSC/SSM permit,6/12/2021,1016748,MANHATTAN,105,360 PARK AVENUE SOUTH,1,40.74209976196289,-73.98558807373047
123695484,A2,CS/SSC/SSM permit,6/12/2021,1016748,MANHATTAN,105,360 PARK AVENUE SOUTH,1,40.74209976196289,-73.98558807373047
123534041,A2,CS/SSC/SSM permit,1/31/2021,1016749,MANHATTAN,105,41 MADISON AVENUE,1,40.74237823486328,-73.98626708984375
122874014,A2,CS/SSC/SSM permit,12/31/2020,1016876,MANHATTAN,105,11 EAST 26TH STREET,1,40.743438720703125,-73.98722839355469
123426444,A2,CS/SSC/SSM permit,3/1/2021,1016877,MANHATTAN,105,15 EAST 26 STREET,1,40.74333953857422,-73.98700714111328
123853437,A2,CS/SSC/SSM permit,6/29/2021,1016889,MANHATTAN,105,28 EAST 28TH STREET,1,40.74346923828125,-73.98536682128906
123510815,A2,CS/SSC/SSM permit,1/31/2021,1016934,MANHATTAN,105,432 PARK AVE SOUTH,1,40.744258880615234,-73.98377227783203
140479658,A2,CS/SSC/SSM permit,9/3/2020,1016939,MANHATTAN,105,105 MADISON AVE,1,40.74491882324219,-73.98468780517578
123471466,A2,CS/SSC/SSM permit,9/30/2020,1016972,MANHATTAN,105,131 MADISON AVENUE,1,40.74559020996094,-73.98419189453125
140923847,A2,CS/SSC/SSM permit,3/23/2021,1016972,MANHATTAN,105,131 MADISON AVENUE,1,40.74559020996094,-73.98419189453125
122888722,A2,CS/SSC/SSM permit,11/19/2020,1017019,MANHATTAN,105,2 PARK AVENUE,1,40.74633026123047,-73.98259735107422
123769582,A2,CS/SSC/SSM permit,10/20/2020,1017077,MANHATTAN,105,16 EAST 34TH STREET,1,40.7476692199707,-73.98384094238281
123769573,A2,CS/SSC/SSM permit,10/20/2020,1017077,MANHATTAN,105,16 EAST 34TH STREET,1,40.7476692199707,-73.98384094238281
123831737,A2,CS/SSC/SSM permit,3/24/2021,1017082,MANHATTAN,105,171 MADISON AVENUE,1,40.74713897705078,-73.98306274414062
122973407,A2,CS/SSC/SSM permit,3/27/2021,1017084,MANHATTAN,105,4 PARK AVENUE,1,40.74686813354492,-73.98194885253906
123446690,A2,CS/SSC/SSM permit,12/31/2020,1017084,MANHATTAN,105,4 PARK AVENUE,1,40.74686813354492,-73.98194885253906
140832464,A2,CS/SSC/SSM permit,10/10/2020,1017135,MANHATTAN,106,211 MADISON AVENUE,1,40.7486686706543,-73.9819564819336
140698984,A2,CS/SSC/SSM permit,10/10/2020,1017135,MANHATTAN,106,211 MADISON AVENUE,1,40.7486686706543,-73.9819564819336
123901439,A2,CS/SSC/SSM permit,10/31/2020,1017205,MANHATTAN,106,50 PARK AVENUE,1,40.74937057495117,-73.9803466796875
140884087,A2,CS/SSC/SSM permit,2/1/2021,1017206,MANHATTAN,106,52 PARK AVENUE,1,40.74934005737305,-73.98014068603516
123432605,A1,CS/SSC/SSM permit,12/15/2020,1017220,MANHATTAN,106,22 EAST 38TH STREET,1,40.749969482421875,-73.98094940185547
122428346,A2,CS/SSC/SSM permit,12/15/2020,1017220,MANHATTAN,106,22 EAST 38 STREET,1,40.749969482421875,-73.98094940185547
123548553,A2,CS/SSC/SSM permit,9/30/2020,1017221,MANHATTAN,105,244 MADISON AVENUE,1,40.75020980834961,-73.98152160644531
123313725,A1,CS/SSC/SSM permit,10/1/2020,1017602,MANHATTAN,105,455 FIFTH AVENUE,1,40.75178146362305,-73.98153686523438
103647706,A2,CS/SSC/SSM permit,3/18/2021,1017828,MANHATTAN,106,40 IRVING PLACE,1,40.735321044921875,-73.98709106445312
121193047,A1,CS/SSC/SSM permit,4/1/2021,1017839,MANHATTAN,105,44 UNION SQUARE EAST,1,40.73624038696289,-73.9887466430664
122177312,A2,CS/SSC/SSM permit,1/1/2021,1017910,MANHATTAN,106,111 EAST 19TH STREET,1,40.737548828125,-73.98722076416016
122717079,A2,CS/SSC/SSM permit,3/27/2021,1017914,MANHATTAN,106,81 IRVING PLACE,1,40.737300872802734,-73.9867172241211
121227118,A1,CS/SSC/SSM permit,12/17/2020,1017951,MANHATTAN,106,4 GRAMERCY PARK WEST,1,40.73834991455078,-73.98689270019531
123756417,A2,CS/SSC/SSM permit,10/31/2020,1017989,MANHATTAN,106,60 GRAMERCY PARK NORTH,1,40.738868713378906,-73.98622131347656
123772195,A2,CS/SSC/SSM permit,1/31/2021,1017997,MANHATTAN,106,39 GRAMERCY PARK NORTH,1,40.73786926269531,-73.98433685302734
123385899,A1,CS/SSC/SSM permit,12/15/2020,1018102,MANHATTAN,105,345 PARK AVENUE SOUTH,1,40.741661071777344,-73.98487091064453
123504662,A2,CS/SSC/SSM permit,5/24/2021,1018159,MANHATTAN,105,381 PARK AVENUE SOUTH,1,40.74235916137695,-73.98420715332031
123436077,A2,CS/SSC/SSM permit,1/31/2021,1018205,MANHATTAN,105,108 EAST 29TH STREET,1,40.74332046508789,-73.98314666748047
123480125,NB,CS/SSC/SSM permit,6/9/2021,1018311,MANHATTAN,106,165 LEXINGTON AVENUE,1,40.74396896362305,-73.98114776611328
140762360,A2,CS/SSC/SSM permit,1/6/2021,1018516,MANHATTAN,106,15 PARK AVENUE,1,40.74740982055664,-73.98065948486328
140762379,A2,CS/SSC/SSM permit,1/6/2021,1018548,MANHATTAN,106,17 PARK AVENUE,1,40.74740982055664,-73.98065948486328
122046561,A1,CS/SSC/SSM permit,10/30/2020,1018906,MANHATTAN,106,155 EAST 35 STREET,1,40.746891021728516,-73.97824096679688
123868092,A2,CS/SSC/SSM permit,9/27/2020,1019090,MANHATTAN,106,303 LEXINGTON AVENUE,1,40.748348236083984,-73.97786712646484
123487084,A2,CS/SSC/SSM permit,9/30/2020,1019099,MANHATTAN,106,160 EAST 38TH STREET,1,40.74808883666992,-73.97686767578125
123254263,A1,CS/SSC/SSM permit,10/1/2020,1019101,MANHATTAN,106,150 E 38 ST,1,40.748409271240234,-73.97724151611328
123491596,A2,CS/SSC/SSM permit,5/24/2021,1019118,MANHATTAN,106,108 EAST 38TH STREET,1,40.74911117553711,-73.97889709472656
123117929,A2,CS/SSC/SSM permit,11/9/2020,1019481,MANHATTAN,106,145 EAST 39TH STREET,1,40.749420166015625,-73.97657012939453
123903874,A2,CS/SSC/SSM permit,9/20/2020,1019484,MANHATTAN,106,148 EAST 40 STREET,1,40.74958038330078,-73.9761962890625
123837492,DM,CS/SSC/SSM permit,11/5/2020,1019494,MANHATTAN,106,112 EAST 40TH ST,1,40.75027847290039,-73.97785949707031
123070522,A1,CS/SSC/SSM permit,12/5/2020,1019552,MANHATTAN,106,205 EAST 17TH STREET,1,40.73516082763672,-73.98513793945312
140787370,A2,CS/SSC/SSM permit,7/27/2021,1019580,MANHATTAN,106,205 THIRD AVENUE,1,40.73591995239258,-73.98477935791016
123814042,A2,CS/SSC/SSM permit,2/7/2021,1019591,MANHATTAN,106,242 EAST 19TH STREET,1,40.73542022705078,-73.98319244384766
123800093,NB,CS/SSC/SSM permit,2/12/2021,1019620,MANHATTAN,106,359 SECOND AVENUE,3,40.73657989501953,-73.98214721679688
123800431,DM,CS/SSC/SSM permit,4/14/2021,1019665,MANHATTAN,106,297 3RD AVENUE,1,40.738548278808594,-73.98294067382812
140884620,A2,CS/SSC/SSM permit,3/27/2021,1019731,MANHATTAN,106,235 E 22,1,40.737701416015625,-73.98190307617188
123861981,A2,CS/SSC/SSM permit,12/30/2020,1019821,MANHATTAN,106,201 EAST 25TH STREET,1,40.74020004272461,-73.98174285888672
123739142,A2,CS/SSC/SSM permit,7/25/2021,1019864,MANHATTAN,106,200 EAST 27TH STREET,1,40.74089813232422,-73.98094177246094
123691503,A2,CS/SSC/SSM permit,1/31/2021,1019887,MANHATTAN,106,385 THIRD AVENUE,1,40.741600036621094,-73.98075103759766
123731630,A2,CS/SSC/SSM permit,11/30/2020,1019888,MANHATTAN,106,201 EAST 28TH STREET,1,40.742008209228516,-73.98027801513672
123171227,A1,CS/SSC/SSM permit,2/2/2021,1019941,MANHATTAN,106,212 EAST 30 STREET,1,40.74271011352539,-73.9793930053711
103652174,A2,CS/SSC/SSM permit,7/15/2021,1020080,MANHATTAN,106,208 EAST 33RD ST,1,40.74443054199219,-73.9779281616211
123756015,NB,CS/SSC/SSM permit,7/15/2021,1020123,MANHATTAN,106,609 SECOND AVENUE,2,40.74446105957031,-73.9764633178711
121205221,NB,CS/SSC/SSM permit,8/7/2021,1020137,MANHATTAN,106,200 EAST 34TH STREET,3,40.74541091918945,-73.97798919677734
122382331,DM,CS/SSC/SSM permit,1/17/2021,1020140,MANHATTAN,106,507 3 AVENUE,1,40.74583053588867,-73.97765350341797
121205640,NB,CS/SSC/SSM permit,4/1/2021,1020141,MANHATTAN,106,509 3RD AVENUE,2,40.74583053588867,-73.97765350341797
122382340,DM,CS/SSC/SSM permit,1/17/2021,1020141,MANHATTAN,106,511 3 AVENUE,1,40.74583053588867,-73.97765350341797
122382322,DM,CS/SSC/SSM permit,1/17/2021,1020143,MANHATTAN,106,207 EAST 34 STREET,1,40.74583053588867,-73.97765350341797
122091235,DM,CS/SSC/SSM permit,1/17/2021,1020144,MANHATTAN,106,209 EAST 34 STREET,1,40.74583053588867,-73.97765350341797
123187791,A2,CS/SSC/SSM permit,7/1/2021,1020214,MANHATTAN,106,201 EAST 36TH STREET,1,40.7470588684082,-73.97675323486328
123702243,A2,CS/SSC/SSM permit,1/25/2021,1020339,MANHATTAN,106,245 EAST 37 STREET,1,40.74700927734375,-73.97461700439453
122233519,A1,CS/SSC/SSM permit,4/18/2021,1020410,MANHATTAN,106,336 EAST 15TH STREET,1,40.73223876953125,-73.98314666748047
123836938,A2,CS/SSC/SSM permit,4/18/2021,1020410,MANHATTAN,106,336 EAST 15TH STREET,1,40.73223876953125,-73.98314666748047
123799915,A2,CS/SSC/SSM permit,4/1/2021,1020438,MANHATTAN,106,301 1ST AVENUE,1,40.73360061645508,-73.98143005371094
123662517,A2,CS/SSC/SSM permit,12/3/2020,1020438,MANHATTAN,106,301 FIRST AVENUE,1,40.73360061645508,-73.98143005371094
140875532,A2,CS/SSC/SSM permit,11/12/2020,1020570,MANHATTAN,106,321 EAST 22ND STREET,1,40.73698043823242,-73.98023223876953
121186625,NB,CS/SSC/SSM permit,12/31/2020,1020571,MANHATTAN,106,327 EAST 22ND STREET,2,40.736839294433594,-73.97991180419922
123808843,A2,CS/SSC/SSM permit,3/25/2021,1020579,MANHATTAN,106,340 EAST 23 STREET,1,40.736961364746094,-73.97944641113281
123390339,A2,CS/SSC/SSM permit,3/1/2021,1020599,MANHATTAN,106,305 EAST 24TH STREET,1,40.73868179321289,-73.97976684570312
123311683,A2,CS/SSC/SSM permit,1/1/2021,1021891,MANHATTAN,106,340 EAST 34TH STREET,1,40.743839263916016,-73.97438049316406
122563573,A2,CS/SSC/SSM permit,10/1/2020,1021891,MANHATTAN,106,340 EAST 34TH STREET,1,40.743839263916016,-73.97438049316406
123274777,A2,CS/SSC/SSM permit,12/31/2020,1021933,MANHATTAN,106,311 EAST 38TH STREET,1,40.74723815917969,-73.97322082519531
123495431,A1,CS/SSC/SSM permit,9/1/2020,1022563,MANHATTAN,105,1440 BROADWAY,1,40.75437927246094,-73.9862289428711
123776360,A2,CS/SSC/SSM permit,12/31/2020,1022564,MANHATTAN,105,114 WEST 41ST STREET,1,40.75423049926758,-73.98573303222656
123723541,A2,CS/SSC/SSM permit,5/31/2021,1022564,MANHATTAN,105,114 WEST 41ST STREET,1,40.75423049926758,-73.98573303222656
140851807,A2,CS/SSC/SSM permit,10/31/2020,1022573,MANHATTAN,105,1460 BROADWAY,1,40.75510025024414,-73.9862289428711
122221381,A1,CS/SSC/SSM permit,10/1/2020,1022613,MANHATTAN,105,127 WEST 43 STREET,1,40.756290435791016,-73.98487854003906
121290815,A2,CS/SSC/SSM permit,11/18/2020,1022616,MANHATTAN,105,120 WEST 44TH STREET,1,40.75638961791992,-73.98433685302734
123601600,A2,CS/SSC/SSM permit,11/30/2020,1022624,MANHATTAN,105,1530 BROADWAY,1,40.75741958618164,-73.98519897460938
123343603,A1,CS/SSC/SSM permit,1/1/2021,1022638,MANHATTAN,105,121 WEST 45 ST,1,40.75735092163086,-73.98359680175781
123558890,A2,CS/SSC/SSM permit,11/30/2020,1022661,MANHATTAN,105,1560 BROADWAY,1,40.75859069824219,-73.98446655273438
123843341,A2,CS/SSC/SSM permit,4/1/2021,1022678,MANHATTAN,105,1211 AVENUE OF THE AMERICAS,1,40.75865936279297,-73.9823989868164
123731603,A2,CS/SSC/SSM permit,10/31/2020,1022708,MANHATTAN,105,135 WEST 50TH STREET,1,40.760948181152344,-73.98206329345703
123858227,A2,CS/SSC/SSM permit,4/1/2021,1022708,MANHATTAN,105,135 WEST 50 STREET,1,40.760948181152344,-73.98206329345703
122618499,A1,CS/SSC/SSM permit,10/30/2020,1022709,MANHATTAN,105,1271 AVENUE OF THE AMERICAS,1,40.76054000854492,-73.98100280761719
122618934,A2,CS/SSC/SSM permit,10/30/2020,1022709,MANHATTAN,105,1271 AVENUE OF THE AMERICAS,1,40.76054000854492,-73.98100280761719
123694957,A2,CS/SSC/SSM permit,12/18/2020,1022710,MANHATTAN,105,150 WEST 51ST STREET,1,40.761260986328125,-73.98258972167969
123755203,A2,CS/SSC/SSM permit,4/20/2021,1023163,MANHATTAN,105,1335 6TH AVENUE,1,40.7624397277832,-73.9797134399414
123597312,A2,CS/SSC/SSM permit,6/23/2021,1023166,MANHATTAN,105,825 7TH AVENUE,1,40.76300048828125,-73.98127746582031
123057538,NB,CS/SSC/SSM permit,1/31/2021,1023395,MANHATTAN,105,106 WEST 56TH STREET,1,40.76369094848633,-73.9783706665039
123802251,A2,CS/SSC/SSM permit,5/15/2021,1023455,MANHATTAN,105,118 WEST 57 STREET,1,40.764259338378906,-73.97847747802734
121332968,A1,CS/SSC/SSM permit,1/10/2021,1023728,MANHATTAN,105,109 WEST 57 STREET,1,40.764949798583984,-73.97756958007812
123871783,A2,CS/SSC/SSM permit,10/1/2020,1023732,MANHATTAN,105,100 WEST 58 STREET,1,40.76493835449219,-73.9771499633789
123842128,A2,CS/SSC/SSM permit,1/15/2021,1023735,MANHATTAN,105,134 WEST 58TH STREET,1,40.76536178588867,-73.9781265258789
123802475,A2,CS/SSC/SSM permit,10/31/2020,1023736,MANHATTAN,105,148 WEST 58TH STREET,1,40.76551055908203,-73.97850036621094
123417659,A2,CS/SSC/SSM permit,9/30/2020,1023757,MANHATTAN,105,120 CENTRAL PARK SOUTH,1,40.765830993652344,-73.97737884521484
122636736,A1,CS/SSC/SSM permit,12/30/2020,1023759,MANHATTAN,105,150 CENTRAL PARK SOUTH,1,40.76605987548828,-73.97794342041016
123516506,A2,CS/SSC/SSM permit,1/1/2021,1024663,MANHATTAN,105,220 WEST 42ND STREET,1,40.756168365478516,-73.9881591796875
123879829,A2,CS/SSC/SSM permit,11/1/2020,1024684,MANHATTAN,105,215 W 42 STREET,1,40.756690979003906,-73.98780059814453
123871471,DM,CS/SSC/SSM permit,10/30/2020,1024718,MANHATTAN,105,724 8TH AVENUE,1,40.75914001464844,-73.98806762695312
123871480,DM,CS/SSC/SSM permit,10/30/2020,1024732,MANHATTAN,105,726 8TH AVENUE,1,40.75918960571289,-73.98802947998047
123178541,A2,CS/SSC/SSM permit,3/25/2021,1024813,MANHATTAN,105,840 EIGHTH AVENUE,1,40.76253890991211,-73.98551940917969
123766594,DM,CS/SSC/SSM permit,5/1/2021,1024852,MANHATTAN,105,201 WEST 54TH STREET,1,40.763851165771484,-73.98165130615234
123432507,A2,CS/SSC/SSM permit,12/3/2020,1024878,MANHATTAN,105,870 7TH AVENUE,1,40.76472091674805,-73.98119354248047
140891907,A2,CS/SSC/SSM permit,4/1/2021,1024899,MANHATTAN,105,250 WEST 57TH STREET,1,40.76628112792969,-73.98252868652344
122871197,A2,CS/SSC/SSM permit,4/29/2021,1024901,MANHATTAN,105,1776 BROADWAY,1,40.7663688659668,-73.98149108886719
122003642,A2,CS/SSC/SSM permit,11/9/2020,1024909,MANHATTAN,105,1790 BROADWAY,1,40.76673889160156,-73.9814224243164
121854369,A2,CS/SSC/SSM permit,1/1/2021,1024920,MANHATTAN,105,222 CENTRAL PARK SOUTH,1,40.76715850830078,-73.98047637939453
121577837,A2,CS/SSC/SSM permit,10/31/2020,1024926,MANHATTAN,104,330 WEST 42ND STREET,1,40.75749969482422,-73.9915771484375
123817272,A1,CS/SSC/SSM permit,5/8/2021,1024957,MANHATTAN,104,602 9TH AVENUE,1,40.759090423583984,-73.99183654785156
122731534,A2,CS/SSC/SSM permit,9/30/2020,1025012,MANHATTAN,104,725 EIGHTH AVE,1,40.759620666503906,-73.98841094970703
123656846,A2,CS/SSC/SSM permit,11/30/2020,1025023,MANHATTAN,104,350 WEST 46TH STREET,1,40.76034927368164,-73.98986053466797
123371779,A2,CS/SSC/SSM permit,12/31/2020,1025089,MANHATTAN,104,343 WEST 47TH STREET,1,40.76137924194336,-73.98919677734375
120420231,A1,CS/SSC/SSM permit,11/30/2020,1025105,MANHATTAN,104,787 8TH AVENUE,1,40.761070251464844,-73.98737335205078
123217991,A1,CS/SSC/SSM permit,12/1/2020,1025109,MANHATTAN,104,326 WEST 48 STREET,1,40.761329650878906,-73.98829650878906
140871938,A2,CS/SSC/SSM permit,3/1/2021,1025137,MANHATTAN,104,319 WEST 48TH STREET,1,40.761749267578125,-73.9879379272461
120945442,A1,CS/SSC/SSM permit,1/31/2021,1025426,MANHATTAN,104,337 WEST 55 STREET,1,40.76620101928711,-73.98509979248047
121107765,A2,CS/SSC/SSM permit,1/31/2021,1025426,MANHATTAN,104,337 WEST 55 STREET,1,40.76620101928711,-73.98509979248047
123862114,A2,CS/SSC/SSM permit,11/30/2020,1025442,MANHATTAN,104,330 WEST 56 STREET,1,40.766510009765625,-73.98504638671875
123443167,A2,CS/SSC/SSM permit,1/30/2021,1025450,MANHATTAN,104,322 WEST 57TH STREET,1,40.76683044433594,-73.98423767089844
120453268,A2,CS/SSC/SSM permit,11/14/2020,1026317,MANHATTAN,104,353 WEST 57TH STREET,1,40.76805877685547,-73.98499298095703
123810359,A2,CS/SSC/SSM permit,8/28/2020,1026318,MANHATTAN,104,10 COLUMBUS CIRCLE,1,40.768470764160156,-73.98309326171875
123874520,A2,CS/SSC/SSM permit,4/19/2021,1026676,MANHATTAN,104,425 WEST 50 STREET,1,40.76436996459961,-73.99014282226562
122616302,A1,CS/SSC/SSM permit,12/31/2020,1026698,MANHATTAN,104,438 WEST 51 STREET,1,40.764610290527344,-73.99027252197266
121979207,A1,CS/SSC/SSM permit,1/27/2021,1026707,MANHATTAN,104,448 WEST 51ST STREET,1,40.76472091674805,-73.99051666259766
123365027,A1,CS/SSC/SSM permit,1/1/2021,1026756,MANHATTAN,104,441 WEST 53RD STREET,1,40.76639938354492,-73.98944854736328
104932343,A1,CS/SSC/SSM permit,1/31/2021,1026775,MANHATTAN,104,446 WEST   54 STREET,1,40.76662063598633,-73.98918914794922
121189007,NB,CS/SSC/SSM permit,1/1/2021,1026784,MANHATTAN,104,443 WEST 54TH STREET,3,40.766998291015625,-73.98890686035156
123520984,A2,CS/SSC/SSM permit,1/10/2021,1026863,MANHATTAN,104,440 WEST 57TH STREET,1,40.76818084716797,-73.98747253417969
140920047,A2,CS/SSC/SSM permit,7/5/2021,1026878,MANHATTAN,104,475 WEST 57TH STREET,1,40.76924133300781,-73.98815155029297
121145279,A1,CS/SSC/SSM permit,6/29/2021,1026890,MANHATTAN,104,408 WEST 58TH STREET,1,40.76860809326172,-73.9858627319336
122691658,A1,CS/SSC/SSM permit,10/1/2020,1026893,MANHATTAN,104,432 W 58 STREET,1,40.76890182495117,-73.9865493774414
121204302,NB,CS/SSC/SSM permit,5/13/2021,1026982,MANHATTAN,104,547 WEST 47 STREET,1,40.76409149169922,-73.99537658691406
123893126,A2,CS/SSC/SSM permit,10/31/2020,1027056,MANHATTAN,104,811 TENTH AVENUE,1,40.76715850830078,-73.99085998535156
140864615,A2,CS/SSC/SSM permit,10/25/2020,1027061,MANHATTAN,104,520 WEST 56TH STREET,1,40.76873016357422,-73.99070739746094
121683277,A2,CS/SSC/SSM permit,11/30/2020,1027085,MANHATTAN,104,899 TENTH AVENUE,1,40.77035903930664,-73.98847198486328
121777942,A1,CS/SSC/SSM permit,1/1/2021,1027108,MANHATTAN,104,617 WEST 46TH STREET,1,40.76403045654297,-73.9974594116211
121603504,A1,CS/SSC/SSM permit,4/1/2021,1027117,MANHATTAN,104,622 WEST . 47TH ST,1,40.76435852050781,-73.99732971191406
121289300,NB,CS/SSC/SSM permit,1/21/2021,1027119,MANHATTAN,104,607 WEST 47TH STREET,1,40.76451110839844,-73.99661254882812
121184501,A1,CS/SSC/SSM permit,12/12/2020,1027125,MANHATTAN,104,660 12TH AVENUE,1,40.765480041503906,-73.99656677246094
123747589,DM,CS/SSC/SSM permit,4/3/2021,1027190,MANHATTAN,107,1845 BROADWAY,1,40.76932907104492,-73.9826431274414
123496662,A2,CS/SSC/SSM permit,1/1/2021,1027366,MANHATTAN,107,43 WEST 61 STREET,1,40.77050018310547,-73.98333740234375
123068544,A2,CS/SSC/SSM permit,3/1/2021,1027472,MANHATTAN,107,20 W 64 STREET,1,40.77151107788086,-73.98140716552734
123409846,A2,CS/SSC/SSM permit,2/16/2021,1028159,MANHATTAN,107,2 LINCOLN SQUARE,1,40.77315902709961,-73.98143005371094
121190200,NB,CS/SSC/SSM permit,8/25/2020,1028168,MANHATTAN,107,36 WEST 66TH STREET,1,40.77268981933594,-73.98002624511719
121817506,A1,CS/SSC/SSM permit,12/31/2020,1028474,MANHATTAN,107,50 WEST 69TH STREET,1,40.774898529052734,-73.97942352294922
123188344,A2,CS/SSC/SSM permit,12/1/2020,1028474,MANHATTAN,107,50 WEST 69 STREET,1,40.774898529052734,-73.97942352294922
121226592,A2,CS/SSC/SSM permit,9/30/2020,1028524,MANHATTAN,107,52 WEST 70TH STREET,1,40.77558135986328,-73.97908020019531
123524953,A2,CS/SSC/SSM permit,5/14/2021,1028564,MANHATTAN,107,101 CENTRAL PARK WEST,1,40.775360107421875,-73.97705841064453
122892067,A2,CS/SSC/SSM permit,12/30/2020,1028619,MANHATTAN,107,12 WEST 72ND STREET,1,40.77640914916992,-73.9771499633789
123019401,A2,CS/SSC/SSM permit,11/30/2020,1028634,MANHATTAN,107,37 WEST 72 STREET,1,40.77727127075195,-73.97770690917969
123350051,A2,CS/SSC/SSM permit,11/30/2020,1028636,MANHATTAN,107,15 WEST 72 STREET,1,40.77708053588867,-73.97685241699219
123237032,A2,CS/SSC/SSM permit,3/3/2021,1028661,MANHATTAN,107,23 WEST 73 STREET,1,40.77769088745117,-73.97673034667969
122387595,A1,CS/SSC/SSM permit,11/12/2020,1028726,MANHATTAN,107,32 WEST 75 STREET,1,40.77861022949219,-73.97618865966797
121191806,A1,CS/SSC/SSM permit,1/31/2021,1028803,MANHATTAN,107,41 WEST 76TH STREET,1,40.77983093261719,-73.9759292602539
123798113,A2,CS/SSC/SSM permit,1/31/2021,1028827,MANHATTAN,107,124 WEST 60TH STREET,1,40.77009963989258,-73.9858627319336
123474230,A2,CS/SSC/SSM permit,9/30/2020,1029778,MANHATTAN,107,160 WEST 71ST STREET,1,40.77745819091797,-73.98158264160156
123312940,A2,CS/SSC/SSM permit,9/3/2020,1029891,MANHATTAN,107,116 WEST 72 ST,1,40.777408599853516,-73.97952270507812
101574137,A1,CS/SSC/SSM permit,1/31/2021,1030104,MANHATTAN,107,107 WEST   74 STREET,1,40.77919006347656,-73.97831726074219
122605289,A1,CS/SSC/SSM permit,4/1/2021,1030173,MANHATTAN,107,163 WEST 76TH STREET,1,40.781070709228516,-73.97885131835938
123872773,A2,CS/SSC/SSM permit,3/1/2021,1030339,MANHATTAN,107,110 WEST END AVENUE,1,40.77484130859375,-73.9875717163086
140888877,A2,CS/SSC/SSM permit,5/11/2021,1030340,MANHATTAN,107,240 WEST 65 STREET,1,40.774658203125,-73.98700714111328
140750033,A2,CS/SSC/SSM permit,4/9/2021,1030342,MANHATTAN,107,128 WEST END AVENUE,1,40.775428771972656,-73.98689270019531
123530214,A2,CS/SSC/SSM permit,4/9/2021,1030342,MANHATTAN,107,128 WEST END AVENUE,1,40.775428771972656,-73.98689270019531
123214896,A2,CS/SSC/SSM permit,4/9/2021,1030342,MANHATTAN,107,128 WEST END AVENUE,1,40.775428771972656,-73.98689270019531
140726481,A2,CS/SSC/SSM permit,4/9/2021,1030342,MANHATTAN,107,128 WEST END AVENUE,1,40.775428771972656,-73.98689270019531
123587877,A2,CS/SSC/SSM permit,4/9/2021,1030342,MANHATTAN,107,128 WEST END AVENUE,1,40.775428771972656,-73.98689270019531
123691816,A2,CS/SSC/SSM permit,10/4/2020,1030352,MANHATTAN,107,200 WEST END AVENUE,1,40.77798080444336,-73.98541259765625
122887224,NB,CS/SSC/SSM permit,12/30/2020,1030358,MANHATTAN,107,200 AMSTERDAM AVENUE,1,40.77696990966797,-73.98322296142578
123021684,A1,CS/SSC/SSM permit,10/4/2020,1030383,MANHATTAN,107,248 W 71 ST,1,40.77851104736328,-73.98410034179688
122730786,A1,CS/SSC/SSM permit,9/30/2020,1030384,MANHATTAN,107,252 WEST 71 STREET,1,40.778568267822266,-73.9842300415039
123721687,A1,CS/SSC/SSM permit,3/13/2021,1030384,MANHATTAN,107,252 WEST 71 STREET,1,40.778568267822266,-73.9842300415039
123851732,A2,CS/SSC/SSM permit,9/30/2020,1030390,MANHATTAN,107,240 WEST END AVENUE,1,40.77885818481445,-73.9848403930664
123228257,A1,CS/SSC/SSM permit,11/1/2020,1030399,MANHATTAN,107,250 WEST 71ST STREET,1,40.778541564941406,-73.98416137695312
121204516,NB,CS/SSC/SSM permit,3/25/2021,1030422,MANHATTAN,107,214 WEST 72ND STREET,1,40.778751373291016,-73.98271179199219
123217795,A2,CS/SSC/SSM permit,9/30/2020,1030505,MANHATTAN,107,269 WEST 72ND ST.,1,40.779911041259766,-73.98399353027344
122441027,A1,CS/SSC/SSM permit,8/8/2021,1030529,MANHATTAN,107,260 WEST 73RD STREET,1,40.77994155883789,-73.9832763671875
122779733,A1,CS/SSC/SSM permit,1/31/2021,1030538,MANHATTAN,107,270 WEST 73 STREET,1,40.780059814453125,-73.98355865478516
123581481,A2,CS/SSC/SSM permit,1/31/2021,1030544,MANHATTAN,107,2109 BROADWAY,1,40.7801399230957,-73.98222351074219
123716247,A2,CS/SSC/SSM permit,11/30/2020,1030548,MANHATTAN,107,238 WEST 74 STREET,1,40.7805290222168,-73.98267364501953
122723856,A2,CS/SSC/SSM permit,12/31/2020,1030558,MANHATTAN,107,253 WEST 73RD STREET,1,40.78030014038086,-73.98296356201172
120794998,A1,CS/SSC/SSM permit,1/29/2021,1030729,MANHATTAN,107,228 WEST 75TH STREET,1,40.78104019165039,-73.9819564819336
120797003,A1,CS/SSC/SSM permit,1/29/2021,1030737,MANHATTAN,107,230 WEST 75TH STREET,1,40.781070709228516,-73.98200988769531
122974335,A1,CS/SSC/SSM permit,9/30/2020,1030740,MANHATTAN,107,256 WEST 75TH STREET,1,40.781410217285156,-73.98280334472656
123803125,A2,CS/SSC/SSM permit,12/31/2020,1030741,MANHATTAN,107,201 WEST 74TH STREET,1,40.78023147583008,-73.98098754882812
123543068,A2,CS/SSC/SSM permit,10/1/2020,1030838,MANHATTAN,107,241 WEST 75TH STREET,1,40.781558990478516,-73.98200225830078
123497769,A1,CS/SSC/SSM permit,10/1/2020,1030838,MANHATTAN,107,241 WEST 75TH STREET,1,40.781558990478516,-73.98200225830078
123595369,A2,CS/SSC/SSM permit,10/1/2020,1030838,MANHATTAN,107,241 WEST 75TH STREET,1,40.781558990478516,-73.98200225830078
123547787,A2,CS/SSC/SSM permit,9/1/2020,1030845,MANHATTAN,107,242 WEST 76 STREET,1,40.7818489074707,-73.98190307617188
123471135,A2,CS/SSC/SSM permit,9/30/2020,1030848,MANHATTAN,107,336 WEST END AVENUE,1,40.782100677490234,-73.98239135742188
140711549,A2,CS/SSC/SSM permit,3/2/2021,1030881,MANHATTAN,107,233 WEST 77TH STREET,1,40.782840728759766,-73.98111724853516
122454370,A1,CS/SSC/SSM permit,1/31/2021,1030919,MANHATTAN,107,225 WEST 78TH STREET,1,40.783111572265625,-73.9797592163086
121237018,A1,CS/SSC/SSM permit,10/31/2020,1030971,MANHATTAN,107,340 WEST 72ND STREET,1,40.78022003173828,-73.98619842529297
123672212,A1,CS/SSC/SSM permit,11/13/2020,1030978,MANHATTAN,107,307 WEST 71ST STREET,1,40.7795295715332,-73.9853515625
123301952,A1,CS/SSC/SSM permit,2/1/2021,1030981,MANHATTAN,107,3 RIVERSIDE DRIVE,1,40.78057861328125,-73.98519134521484
123197218,A1,CS/SSC/SSM permit,12/8/2020,1031008,MANHATTAN,107,305 WEST END AVENUE,1,40.781490325927734,-73.98365020751953
123809254,A2,CS/SSC/SSM permit,9/27/2020,1031028,MANHATTAN,107,333 WEST END AVENUE,1,40.7823600769043,-73.98301696777344
122916489,A1,CS/SSC/SSM permit,11/26/2020,1031039,MANHATTAN,107,36 RIVERSIDE DRIVE,1,40.78279113769531,-73.98432159423828
122732800,A1,CS/SSC/SSM permit,11/7/2020,1031064,MANHATTAN,107,347 WEST END AVE,1,40.782798767089844,-73.98269653320312
122685362,A1,CS/SSC/SSM permit,3/9/2021,1031081,MANHATTAN,107,326 WEST 77 STREET,1,40.78329849243164,-73.98338317871094
123602093,A2,CS/SSC/SSM permit,3/25/2021,1031092,MANHATTAN,107,50 RIVERSIDE DRIVE,1,40.783790588378906,-73.98335266113281
122233181,A1,CS/SSC/SSM permit,8/18/2020,1031098,MANHATTAN,107,313 WEST 77TH STREET,1,40.78350067138672,-73.98265838623047
123550530,A2,CS/SSC/SSM permit,10/31/2020,1031141,MANHATTAN,107,1 WEST 81ST STREET,1,40.7825813293457,-73.97191619873047
122741612,A2,CS/SSC/SSM permit,10/31/2020,1031141,MANHATTAN,107,211 CENTRAL PARK WEST,1,40.7825813293457,-73.97191619873047
123787376,A2,CS/SSC/SSM permit,4/19/2021,1031232,MANHATTAN,107,230 CENTRAL PARK WEST,1,40.783668518066406,-73.97093963623047
123730739,A2,CS/SSC/SSM permit,9/9/2020,1031233,MANHATTAN,107,239 CENTRAL PARK WEST,1,40.78395080566406,-73.97083282470703
123561966,A2,CS/SSC/SSM permit,12/17/2020,1031300,MANHATTAN,107,35 WEST 84TH STREET,1,40.7849006652832,-73.97189331054688
121983657,A1,CS/SSC/SSM permit,9/24/2020,1031313,MANHATTAN,107,249 CENTRAL PARK WEST,1,40.78464126586914,-73.97020721435547
123877242,A2,CS/SSC/SSM permit,1/31/2021,1031384,MANHATTAN,107,40 WEST 86TH STREET,1,40.7859001159668,-73.97151947021484
123783904,A2,CS/SSC/SSM permit,3/13/2021,1031405,MANHATTAN,107,21 WEST 86TH STREET,1,40.7859992980957,-73.97028350830078
123489821,A1,CS/SSC/SSM permit,8/15/2020,1031451,MANHATTAN,107,43 WEST 87TH STREET,1,40.78691101074219,-73.97049713134766
120045138,A1,CS/SSC/SSM permit,3/2/2021,1031515,MANHATTAN,107,18 WEST 89TH STREET,1,40.7872314453125,-73.96888732910156
123274232,A2,CS/SSC/SSM permit,3/2/2021,1031515,MANHATTAN,107,21 WEST 88TH STREET,1,40.7872314453125,-73.96888732910156
122906356,A1,CS/SSC/SSM permit,10/31/2020,1031588,MANHATTAN,107,21 WEST 89TH STREET,1,40.787750244140625,-73.96858978271484
123874539,A2,CS/SSC/SSM permit,5/2/2021,1031636,MANHATTAN,107,322 CENTRAL PARK WEST,1,40.78940963745117,-73.96678924560547
121188213,A1,CS/SSC/SSM permit,1/1/2021,1031667,MANHATTAN,107,47 WEST 94TH STREET,1,40.791168212890625,-73.96697235107422
122565802,A1,CS/SSC/SSM permit,8/24/2020,1031674,MANHATTAN,107,25 WEST 94 STREET,1,40.790931701660156,-73.96639251708984
122817176,A1,CS/SSC/SSM permit,8/7/2021,1031678,MANHATTAN,107,15 WEST 94 STREET,1,40.790809631347656,-73.96613311767578
121191030,A1,CS/SSC/SSM permit,1/31/2021,1031693,MANHATTAN,107,44 WEST 95 STREET,1,40.79148864746094,-73.96695709228516
123102114,A1,CS/SSC/SSM permit,1/1/2021,1031701,MANHATTAN,107,6 WEST 95TH STREET,1,40.79103088378906,-73.96585845947266
123744458,A2,CS/SSC/SSM permit,6/29/2021,1031724,MANHATTAN,107,353 CENTRAL PARK WEST,1,40.791229248046875,-73.96530151367188
123393318,A2,CS/SSC/SSM permit,10/31/2020,1031756,MANHATTAN,107,147 WEST 79TH STREET,1,40.78290939331055,-73.97704315185547
122042306,A1,CS/SSC/SSM permit,1/1/2021,1031993,MANHATTAN,107,140 WEST 81ST STREET,1,40.783748626708984,-73.97625732421875
121190255,NB,CS/SSC/SSM permit,6/1/2021,1032071,MANHATTAN,107,468 COLUMBUS AVENUE,3,40.784339904785156,-73.97413635253906
103651013,A2,CS/SSC/SSM permit,1/21/2021,1032128,MANHATTAN,107,145 WEST 84TH STREET,1,40.786048889160156,-73.9743423461914
122482054,A1,CS/SSC/SSM permit,10/31/2020,1032140,MANHATTAN,107,169 WEST 85 STREET,1,40.78702163696289,-73.97498321533203
123678617,A2,CS/SSC/SSM permit,12/31/2020,1032170,MANHATTAN,107,140 WEST 86 STREET,1,40.78683853149414,-73.97376251220703
121189971,A1,CS/SSC/SSM permit,8/5/2021,1032241,MANHATTAN,107,125 WEST 87TH STREET,1,40.78770065307617,-73.9723892211914
122783979,A2,CS/SSC/SSM permit,3/15/2021,1032282,MANHATTAN,107,160 WEST 88 STREET,1,40.7883415222168,-73.97310638427734
123545146,A2,CS/SSC/SSM permit,9/30/2020,1032489,MANHATTAN,107,175 WEST 90 STREET,1,40.790401458740234,-73.9725112915039
123361913,A1,CS/SSC/SSM permit,8/29/2020,1032517,MANHATTAN,107,146 WEST 92ND STREET,1,40.79087829589844,-73.97135925292969
123104185,A2,CS/SSC/SSM permit,8/29/2020,1032517,MANHATTAN,107,146 WEST 92 STREET,1,40.79087829589844,-73.97135925292969
121333681,A1,CS/SSC/SSM permit,1/31/2021,1032579,MANHATTAN,107,130 WEST 95 STREET,1,40.79249954223633,-73.9693374633789
123012202,A2,CS/SSC/SSM permit,3/1/2021,1032698,MANHATTAN,107,450 WEST END AVE,1,40.78596878051758,-73.97956848144531
121205150,NB,CS/SSC/SSM permit,1/1/2021,1033121,MANHATTAN,107,2330 BROADWAY,2,40.78730010986328,-73.97691345214844
123356340,A2,CS/SSC/SSM permit,10/31/2020,1033140,MANHATTAN,107,200 WEST 86 STREET,1,40.787681579589844,-73.97573852539062
123475319,A2,CS/SSC/SSM permit,9/30/2020,1033289,MANHATTAN,107,588 WEST END AVENUE,1,40.79029083251953,-73.97643280029297
121275707,NB,CS/SSC/SSM permit,1/1/2021,1033583,MANHATTAN,107,2461 BROADWAY,3,40.79180145263672,-73.97438049316406
121203884,NB,CS/SSC/SSM permit,8/21/2020,1033615,MANHATTAN,107,212 WEST 93 STREET,3,40.792259216308594,-73.97265625
123558051,NB,CS/SSC/SSM permit,6/29/2021,1033645,MANHATTAN,107,2505 BROADWAY,3,40.79310989379883,-73.97342681884766
122395443,A1,CS/SSC/SSM permit,2/1/2021,1033683,MANHATTAN,107,2528 BROADWAY,1,40.7934684753418,-73.97206115722656
121207014,NB,CS/SSC/SSM permit,8/6/2021,1033708,MANHATTAN,107,2555 BROADWAY,2,40.79460144042969,-73.9723892211914
123685128,A1,CS/SSC/SSM permit,11/6/2020,1033853,MANHATTAN,107,319 WEST 84TH STREET,1,40.78810119628906,-73.97949981689453
123573793,A2,CS/SSC/SSM permit,7/19/2021,1033933,MANHATTAN,107,140 RIVERSIDE DRIVE,1,40.7901611328125,-73.979736328125
140866212,A2,CS/SSC/SSM permit,2/1/2021,1033936,MANHATTAN,107,333 WEST 86TH STREET,1,40.78974151611328,-73.97917938232422
122214308,A1,CS/SSC/SSM permit,3/8/2021,1033981,MANHATTAN,107,316 WEST 88 STREET,1,40.79039001464844,-73.97794342041016
123025118,A1,CS/SSC/SSM permit,10/7/2020,1033982,MANHATTAN,107,318 WEST 88 STREET,1,40.790409088134766,-73.97799682617188
140358333,A2,CS/SSC/SSM permit,2/4/2021,1034123,MANHATTAN,107,675 WEST END AVENUE,1,40.79317092895508,-73.97514343261719
103646501,A2,CS/SSC/SSM permit,5/31/2021,1034190,MANHATTAN,107,735 WEST END AVENUE,1,40.795108795166016,-73.9739990234375
123760206,A2,CS/SSC/SSM permit,11/1/2020,1034194,MANHATTAN,105,476 FIFTH AVENUE,1,40.75320053100586,-73.98226928710938
123660190,A1,CS/SSC/SSM permit,10/1/2020,1034195,MANHATTAN,105,1100 AVENUE OF THE AMERICAS,1,40.754859924316406,-73.98343658447266
123748196,A2,CS/SSC/SSM permit,1/1/2021,1034196,MANHATTAN,105,1114 AVENUE OF THE AMERICAS,1,40.75482940673828,-73.98284912109375
123702895,A2,CS/SSC/SSM permit,10/1/2020,1034198,MANHATTAN,105,11 WEST 42ND STREET,1,40.75429916381836,-73.9817886352539
121323923,NB,CS/SSC/SSM permit,9/29/2020,1034211,MANHATTAN,105,520 5TH AVENUE,1,40.75447082519531,-73.98062896728516
122246499,A3,CS/SSC/SSM permit,9/29/2020,1034211,MANHATTAN,105,520 FIFTH AVENUE,1,40.75447082519531,-73.98062896728516
123746599,A2,CS/SSC/SSM permit,1/1/2021,1034227,MANHATTAN,105,530 FIFTH AVENUE,1,40.75522994995117,-73.98013305664062
140898526,A2,CS/SSC/SSM permit,6/15/2021,1034228,MANHATTAN,105,2 WEST 45TH STREET,1,40.755470275878906,-73.98021697998047
123396280,A2,CS/SSC/SSM permit,1/31/2021,1034249,MANHATTAN,105,15 WEST 45TH STREET,1,40.755950927734375,-73.98018646240234
122480537,A1,CS/SSC/SSM permit,1/5/2021,1034324,MANHATTAN,105,33 WEST 46TH STREET,1,40.75682067871094,-73.9803237915039
123746223,DM,CS/SSC/SSM permit,4/3/2021,1034336,MANHATTAN,105,572 5TH AVENUE,1,40.756500244140625,-73.97908782958984
122030881,DM,CS/SSC/SSM permit,4/3/2021,1034337,MANHATTAN,105,574 5TH AVENUE,1,40.756568908691406,-73.97904205322266
123308875,A2,CS/SSC/SSM permit,1/31/2021,1034345,MANHATTAN,105,36 WEST 47TH STREET,1,40.7571907043457,-73.98042297363281
123165868,DM,CS/SSC/SSM permit,10/30/2020,1034493,MANHATTAN,105,30 WEST 48TH STREET,1,40.757720947265625,-73.979736328125
123869233,DM,CS/SSC/SSM permit,12/31/2020,1034494,MANHATTAN,105,32 WEST 48TH STREET,1,40.75767135620117,-73.97989654541016
123454519,A2,CS/SSC/SSM permit,1/15/2021,1034506,MANHATTAN,105,600 FIFTH AVENUE,1,40.7576789855957,-73.97844696044922
140886968,A2,CS/SSC/SSM permit,8/3/2021,1034516,MANHATTAN,105,640 FIFTH AVENUE,1,40.75954055786133,-73.97699737548828
123346003,A2,CS/SSC/SSM permit,10/30/2020,1034520,MANHATTAN,105,666 FIFTH AVENUE,1,40.76036834716797,-73.9767074584961
122960527,DM,CS/SSC/SSM permit,8/18/2020,1034802,MANHATTAN,105,10 WEST 55 STREET,1,40.76179885864258,-73.9758071899414
140801648,A2,CS/SSC/SSM permit,10/1/2020,1035053,MANHATTAN,105,730 5 AVENUE,1,40.76285934448242,-73.97471618652344
123786965,A2,CS/SSC/SSM permit,1/1/2021,1035053,MANHATTAN,105,730 FIFTH AVENUE,1,40.76285934448242,-73.97471618652344
123347388,A2,CS/SSC/SSM permit,12/31/2020,1035053,MANHATTAN,105,730 5TH AVENUE,1,40.76285934448242,-73.97471618652344
121191325,A1,CS/SSC/SSM permit,4/9/2021,1035053,MANHATTAN,105,730 5TH AVENUE,1,40.76285934448242,-73.97471618652344
123884886,A2,CS/SSC/SSM permit,1/1/2021,1035053,MANHATTAN,105,730 FIFTH AVENUE,1,40.76285934448242,-73.97471618652344
123659576,DM,CS/SSC/SSM permit,12/31/2020,1035056,MANHATTAN,105,20 WEST 57TH STREET,1,40.763301849365234,-73.97547912597656
123710984,A2,CS/SSC/SSM permit,8/1/2021,1035057,MANHATTAN,105,40 WEST 57 STREET,1,40.7635498046875,-73.97635650634766
123675665,DM,CS/SSC/SSM permit,7/1/2021,1035064,MANHATTAN,105,43 WEST 57TH STREET,1,40.76420974731445,-73.9761962890625
123675656,DM,CS/SSC/SSM permit,7/1/2021,1035065,MANHATTAN,105,41 WEST 57TH STREET,1,40.76416015625,-73.9760971069336
123720893,A2,CS/SSC/SSM permit,10/23/2020,1035078,MANHATTAN,105,58 WEST 58 STREET,1,40.764461517333984,-73.97634887695312
123056110,A2,CS/SSC/SSM permit,3/1/2021,1035369,MANHATTAN,105,11 EAST 44TH STREET,1,40.75458908081055,-73.97889709472656
140833070,A2,CS/SSC/SSM permit,12/31/2020,1035393,MANHATTAN,105,45 EAST 45TH STREET,1,40.75484085083008,-73.97718048095703
140852058,A2,CS/SSC/SSM permit,12/31/2020,1035404,MANHATTAN,105,383 MADISON AVENUE,1,40.755470275878906,-73.97672271728516
123414652,A2,CS/SSC/SSM permit,12/31/2020,1035421,MANHATTAN,105,270 PARK AVENUE,1,40.7559814453125,-73.97599029541016
123656640,DM,CS/SSC/SSM permit,7/1/2021,1035421,MANHATTAN,105,270 PARK AVENUE,1,40.7559814453125,-73.97599029541016
123493460,A2,CS/SSC/SSM permit,12/31/2020,1035421,MANHATTAN,105,270 PARK AVENUE,1,40.7559814453125,-73.97599029541016
123493512,A2,CS/SSC/SSM permit,12/31/2020,1035421,MANHATTAN,105,270 PARK AVENUE,1,40.7559814453125,-73.97599029541016
123479725,A2,CS/SSC/SSM permit,12/31/2020,1035421,MANHATTAN,105,270 PARK AVENUE,1,40.7559814453125,-73.97599029541016
123481179,A2,CS/SSC/SSM permit,12/31/2020,1035421,MANHATTAN,105,270 PARK AVENUE,1,40.7559814453125,-73.97599029541016
121207087,A2,CS/SSC/SSM permit,6/9/2021,1035421,MANHATTAN,105,270 PARK AVENUE,2,40.7559814453125,-73.97599029541016
123415964,A2,CS/SSC/SSM permit,12/31/2020,1035421,MANHATTAN,105,270 PARK AVENUE,1,40.7559814453125,-73.97599029541016
123414643,A2,CS/SSC/SSM permit,12/31/2020,1035421,MANHATTAN,105,270 PARK AVENUE,1,40.7559814453125,-73.97599029541016
123415937,A2,CS/SSC/SSM permit,12/31/2020,1035421,MANHATTAN,105,270 PARK AVENUE,1,40.7559814453125,-73.97599029541016
123491845,A2,CS/SSC/SSM permit,12/31/2020,1035421,MANHATTAN,105,270 PARK AVENUE,1,40.7559814453125,-73.97599029541016
123377782,A2,CS/SSC/SSM permit,12/31/2020,1035421,MANHATTAN,105,270 PARK AVENUE,1,40.7559814453125,-73.97599029541016
123369513,A2,CS/SSC/SSM permit,12/31/2020,1035421,MANHATTAN,105,270 PARK AVENUE,1,40.7559814453125,-73.97599029541016
123381599,A2,CS/SSC/SSM permit,12/31/2020,1035421,MANHATTAN,105,270 PARK AVENUE,1,40.7559814453125,-73.97599029541016
140709632,A2,CS/SSC/SSM permit,1/31/2021,1035438,MANHATTAN,105,420 MADISON AVENUE,1,40.75701141357422,-73.97654724121094
123265876,A1,CS/SSC/SSM permit,8/31/2020,1035469,MANHATTAN,105,11 EAST 51 STREET,1,40.75893020629883,-73.9756088256836
123369336,A2,CS/SSC/SSM permit,11/1/2020,1035469,MANHATTAN,105,11 EAST 51 STREET,1,40.75893020629883,-73.9756088256836
122714697,A1,CS/SSC/SSM permit,10/2/2020,1035737,MANHATTAN,105,685 5TH AVENUE,1,40.76076126098633,-73.97512817382812
121204507,A1,CS/SSC/SSM permit,9/26/2020,1035769,MANHATTAN,105,550 MADISON AVENUE,1,40.76145935058594,-73.97350311279297
123691166,A2,CS/SSC/SSM permit,3/18/2021,1035770,MANHATTAN,105,551 MADISON AVENUE,1,40.76102066040039,-73.9729232788086
123426907,A2,CS/SSC/SSM permit,3/27/2021,1035775,MANHATTAN,105,555 MADISON AVENUE,1,40.76118087768555,-73.9726791381836
123847962,A1,CS/SSC/SSM permit,11/1/2020,1035778,MANHATTAN,105,590 MADISON AVENUE,1,40.76210021972656,-73.97305297851562
123796525,A2,CS/SSC/SSM permit,11/1/2020,1035778,MANHATTAN,105,590 MADISON AVENUE,1,40.76210021972656,-73.97305297851562
140864571,A2,CS/SSC/SSM permit,1/1/2021,1035792,MANHATTAN,105,727 5 AVENUE,1,40.76259994506836,-73.97379302978516
123799611,A1,CS/SSC/SSM permit,1/1/2021,1035792,MANHATTAN,105,727 FIFTH AVENUE,1,40.76259994506836,-73.97379302978516
123755873,A2,CS/SSC/SSM permit,1/1/2021,1035792,MANHATTAN,105,727 FIFTH AVENUE,1,40.76259994506836,-73.97379302978516
123708684,A2,CS/SSC/SSM permit,10/31/2020,1036049,MANHATTAN,105,1 EAST 57TH STREET,1,40.763031005859375,-73.9735336303711
123793760,A2,CS/SSC/SSM permit,9/1/2020,1036056,MANHATTAN,105,15 EAST 57 STREET,1,40.76274871826172,-73.97273254394531
123842896,A2,CS/SSC/SSM permit,10/1/2020,1036061,MANHATTAN,105,595 MADISON AVENUE,1,40.76234817504883,-73.97183227539062
123701896,A2,CS/SSC/SSM permit,1/15/2021,1036145,MANHATTAN,105,360 LEXINGTON AVENUE,1,40.75046920776367,-73.9771728515625
123572730,A2,CS/SSC/SSM permit,1/1/2021,1036156,MANHATTAN,106,405 LEXINGTON AVENUE,1,40.75164031982422,-73.97537231445312
123847622,A2,CS/SSC/SSM permit,1/1/2021,1036156,MANHATTAN,106,405 LEXINGTON AVENUE,1,40.75164031982422,-73.97537231445312
123754491,A2,CS/SSC/SSM permit,1/1/2021,1036185,MANHATTAN,105,230 PARK AVENUE,1,40.754390716552734,-73.9760971069336
123717932,A2,CS/SSC/SSM permit,11/1/2020,1036195,MANHATTAN,106,730 3RD AVENUE,1,40.75318145751953,-73.97332000732422
123813196,A2,CS/SSC/SSM permit,11/1/2020,1036195,MANHATTAN,106,730 THIRD AVENUE,1,40.75318145751953,-73.97332000732422
123708201,A2,CS/SSC/SSM permit,12/31/2020,1036195,MANHATTAN,106,730 THIRD AVENUE,1,40.75318145751953,-73.97332000732422
123658443,A2,CS/SSC/SSM permit,10/8/2020,1036205,MANHATTAN,105,245 PARK AVENUE,1,40.75463104248047,-73.97471618652344
123711625,A2,CS/SSC/SSM permit,9/27/2020,1036208,MANHATTAN,106,501 LEXINGTON AVENUE,1,40.754730224609375,-73.97337341308594
122879518,A2,CS/SSC/SSM permit,9/26/2020,1036447,MANHATTAN,106,150 EAST 50TH STREET,1,40.755889892578125,-73.97152709960938
123780694,A2,CS/SSC/SSM permit,1/31/2021,1036451,MANHATTAN,105,560 LEXINGTON AVENUE,1,40.756858825683594,-73.97264099121094
121333921,NB,CS/SSC/SSM permit,9/26/2020,1036505,MANHATTAN,105,425 PARK AVENUE,1,40.76042938232422,-73.97103881835938
123692334,NB,CS/SSC/SSM permit,3/4/2021,1036507,MANHATTAN,105,115 EAST 55TH STREET,2,40.760169982910156,-73.97078704833984
123802938,A2,CS/SSC/SSM permit,4/1/2021,1036509,MANHATTAN,105,123 EAST 55TH STREET,1,40.76007080078125,-73.97055053710938
123847481,A2,CS/SSC/SSM permit,5/31/2021,1036882,MANHATTAN,106,950 3RD AVENUE,1,40.76020050048828,-73.96808624267578
123250016,A3,CS/SSC/SSM permit,10/31/2020,1037552,MANHATTAN,106,235 EAST 42ND STREET,1,40.750389099121094,-73.97252655029297
123895437,A2,CS/SSC/SSM permit,10/1/2020,1037596,MANHATTAN,106,733 THIRD AVENUE,1,40.752891540527344,-73.97221374511719
122636317,A1,CS/SSC/SSM permit,3/31/2021,1038012,MANHATTAN,106,241 EAST 48TH STREET,1,40.75413131713867,-73.97004699707031
122921393,A1,CS/SSC/SSM permit,2/11/2021,1038231,MANHATTAN,106,245 EAST 49 STREET,1,40.75468826293945,-73.96945190429688
123095319,A2,CS/SSC/SSM permit,10/31/2020,1038243,MANHATTAN,106,805 3RD AVE,1,40.75539016723633,-73.97054290771484
123901527,A2,CS/SSC/SSM permit,3/25/2021,1038254,MANHATTAN,106,255 EAST 49TH STREET,1,40.75463104248047,-73.96906280517578
123812525,A2,CS/SSC/SSM permit,9/1/2020,1038468,MANHATTAN,106,231 EAST 51ST STREET,1,40.75608825683594,-73.96887969970703
123845349,A2,CS/SSC/SSM permit,9/1/2020,1038468,MANHATTAN,106,231 EAST 51ST STREET,1,40.75608825683594,-73.96887969970703
123372037,NB,CS/SSC/SSM permit,9/24/2020,1038477,MANHATTAN,106,244 EAST 52ND STREET,3,40.756168365478516,-73.96829986572266
123883182,A2,CS/SSC/SSM permit,1/31/2021,1038491,MANHATTAN,106,224 EAST 52 STREET,1,40.75642013549805,-73.96888732910156
123839132,A2,CS/SSC/SSM permit,12/19/2020,1038557,MANHATTAN,106,243 EAST 53RD STREET,1,40.75722122192383,-73.96766662597656
123446360,A2,CS/SSC/SSM permit,11/30/2020,1038597,MANHATTAN,106,227 EAST 57TH STREET,1,40.75992965698242,-73.96602630615234
123852054,A2,CS/SSC/SSM permit,12/31/2020,1038647,MANHATTAN,106,5 TUDOR CITY PLACE,1,40.747989654541016,-73.97087860107422
121444062,A2,CS/SSC/SSM permit,10/4/2020,1038656,MANHATTAN,106,312 EAST 42 STREET,1,40.749210357666016,-73.97148132324219
140863331,A2,CS/SSC/SSM permit,12/27/2020,1038897,MANHATTAN,106,305 EAST 46 STREET,1,40.75230026245117,-73.9695816040039
123793895,A2,CS/SSC/SSM permit,4/1/2021,1038905,MANHATTAN,106,301 EAST 47TH STREET,1,40.75318145751953,-73.9693603515625
123672436,A2,CS/SSC/SSM permit,3/4/2021,1038920,MANHATTAN,106,865 FIRST AVENUE,1,40.7530403137207,-73.96717071533203
122874130,A1,CS/SSC/SSM permit,4/18/2021,1039669,MANHATTAN,106,308 EAST 52ND STREET,1,40.755680084228516,-73.96711730957031
122770180,A1,CS/SSC/SSM permit,6/21/2021,1039832,MANHATTAN,106,323 EAST 53 STREET,1,40.756500244140625,-73.96595764160156
123485861,A2,CS/SSC/SSM permit,2/5/2021,1039942,MANHATTAN,106,311 EAST 54TH STREET,2,40.75733947753906,-73.96601104736328
123747561,DM,CS/SSC/SSM permit,6/26/2021,1039949,MANHATTAN,106,347 EAST 54TH STREET,1,40.75680923461914,-73.96475982666016
123495137,A2,CS/SSC/SSM permit,9/27/2020,1039987,MANHATTAN,106,350 EAST 57 STREET,1,40.75838088989258,-73.96375274658203
140868568,A2,CS/SSC/SSM permit,7/18/2021,1039988,MANHATTAN,106,340 EAST 57TH STREET,1,40.75852966308594,-73.96407318115234
123859725,A2,CS/SSC/SSM permit,1/27/2021,1040031,MANHATTAN,106,300 EAST 59 STREET,1,40.760169982910156,-73.9642333984375
121374244,A2,CS/SSC/SSM permit,5/2/2021,1040155,MANHATTAN,106,435 EAST 52ND STREET,1,40.754638671875,-73.9631118774414
122765953,A2,CS/SSC/SSM permit,3/1/2021,1040356,MANHATTAN,106,415 EAST 54 STREET,1,40.75614929199219,-73.9630126953125
123814934,A2,CS/SSC/SSM permit,1/6/2021,1040466,MANHATTAN,106,400 EAST 57TH STREET,1,40.75782012939453,-73.962890625
123480795,A2,CS/SSC/SSM permit,10/31/2020,1040466,MANHATTAN,106,400 EAST 57TH STREET,1,40.75782012939453,-73.962890625
123804570,A2,CS/SSC/SSM permit,3/8/2021,1040474,MANHATTAN,106,410 EAST 57TH STREET,1,40.757808685302734,-73.96247100830078
122972319,A2,CS/SSC/SSM permit,5/24/2021,1040541,MANHATTAN,106,447 EAST 57 STREET,1,40.757911682128906,-73.96124267578125
123748551,A2,CS/SSC/SSM permit,5/21/2021,1040542,MANHATTAN,106,455 EAST 57 STREET,1,40.7578010559082,-73.96099853515625
123485308,A1,CS/SSC/SSM permit,12/17/2020,1040741,MANHATTAN,106,4 RIVERVIEW TERRACE,1,40.75802993774414,-73.95951843261719
140884540,A2,CS/SSC/SSM permit,9/30/2020,1040754,MANHATTAN,108,635 MADISON AVENUE,1,40.7636604309082,-73.97102355957031
123206949,A1,CS/SSC/SSM permit,8/31/2020,1040762,MANHATTAN,108,18 EAST 60TH STREET,1,40.76390838623047,-73.97083282470703
123827822,A2,CS/SSC/SSM permit,8/31/2020,1040762,MANHATTAN,108,645 MADISON AVENUE,1,40.76390838623047,-73.97083282470703
140213766,A2,CS/SSC/SSM permit,12/31/2020,1040765,MANHATTAN,108,785 5TH AVENUE,1,40.764549255371094,-73.97235870361328
123496412,A2,CS/SSC/SSM permit,10/15/2020,1040809,MANHATTAN,108,2 EAST 61ST STREET,1,40.76509094238281,-73.9716796875
123690167,A2,CS/SSC/SSM permit,9/27/2020,1040849,MANHATTAN,108,680 MADISON AVENUE,1,40.7652702331543,-73.97057342529297
120870156,A1,CS/SSC/SSM permit,10/22/2020,1040852,MANHATTAN,108,27 EAST 61ST STREET,1,40.76485061645508,-73.96994018554688
123735805,A2,CS/SSC/SSM permit,3/13/2021,1041036,MANHATTAN,108,580 PARK AVENUE,1,40.765869140625,-73.96808624267578
121328385,A1,CS/SSC/SSM permit,10/31/2020,1041049,MANHATTAN,108,20 EAST 64 STREET,1,40.766761779785156,-73.96981048583984
122082003,A1,CS/SSC/SSM permit,9/1/2020,1041054,MANHATTAN,108,4 EAST 64TH STREET,1,40.76694869995117,-73.97026062011719
122399289,A1,CS/SSC/SSM permit,2/24/2021,1041141,MANHATTAN,108,56 E 66 ST,1,40.76744842529297,-73.96756744384766
121689798,A1,CS/SSC/SSM permit,10/31/2020,1041143,MANHATTAN,108,52 EAST 66 STREET,1,40.76750183105469,-73.96768951416016
123424268,A2,CS/SSC/SSM permit,12/26/2020,1041153,MANHATTAN,108,4 EAST 66TH STREET,1,40.7682991027832,-73.96949768066406
110459584,A1,CS/SSC/SSM permit,1/16/2021,1041189,MANHATTAN,108,14 EAST 67TH STREET,1,40.76865005493164,-73.9684829711914
123704385,A2,CS/SSC/SSM permit,1/31/2021,1041199,MANHATTAN,108,857 5TH AVENUE,1,40.769248962402344,-73.96894836425781
123436825,A2,CS/SSC/SSM permit,1/20/2021,1041201,MANHATTAN,108,7 EAST 67TH STREET,1,40.76914978027344,-73.9684829711914
120487393,A1,CS/SSC/SSM permit,4/15/2021,1041203,MANHATTAN,108,11 EAST 67TH STREET,1,40.76906967163086,-73.96829223632812
121593436,A2,CS/SSC/SSM permit,4/15/2021,1041203,MANHATTAN,108,11 EAST 67TH ST,1,40.76906967163086,-73.96829223632812
140832650,A2,CS/SSC/SSM permit,1/31/2021,1041209,MANHATTAN,108,25 EAST 67 STREET,1,40.76885986328125,-73.96778869628906
123158313,A2,CS/SSC/SSM permit,1/5/2021,1041209,MANHATTAN,108,25 EAST 67 STREET,1,40.76885986328125,-73.96778869628906
122121569,A1,CS/SSC/SSM permit,1/20/2021,1041232,MANHATTAN,108,36 EAST 68 STREET,1,40.76877975463867,-73.96685028076172
123578404,A2,CS/SSC/SSM permit,6/3/2021,1041237,MANHATTAN,108,20 EAST 68 STREET,1,40.76914978027344,-73.96771240234375
120973991,A1,CS/SSC/SSM permit,1/31/2021,1041238,MANHATTAN,108,18 EAST 68TH STREET,1,40.769229888916016,-73.96793365478516
103122256,A1,CS/SSC/SSM permit,1/20/2021,1041243,MANHATTAN,108,858 FIFTH AVENUE,1,40.76947021484375,-73.96871948242188
123790344,A2,CS/SSC/SSM permit,9/13/2020,1041264,MANHATTAN,108,49 EAST 68TH STREET,1,40.76897048950195,-73.96613311767578
123551593,A2,CS/SSC/SSM permit,1/17/2021,1041266,MANHATTAN,108,684 PARK AVENUE,1,40.7689208984375,-73.96589660644531
123254691,A1,CS/SSC/SSM permit,1/22/2021,1041269,MANHATTAN,108,50 EAST 69TH STREET,1,40.76919937133789,-73.9659194946289
123126937,A2,CS/SSC/SSM permit,7/28/2021,1041317,MANHATTAN,108,28 EAST 70TH STREET,1,40.77022933959961,-73.96620178222656
121325930,A1,CS/SSC/SSM permit,11/1/2020,1041326,MANHATTAN,108,21 EAST 70TH STREET,1,40.77075958251953,-73.96647644042969
123131217,A2,CS/SSC/SSM permit,1/26/2021,1041329,MANHATTAN,108,41 EAST 70TH STREET,1,40.770389556884766,-73.96560668945312
123131226,A1,CS/SSC/SSM permit,1/27/2021,1041329,MANHATTAN,108,41 EAST 70TH STREET,1,40.770389556884766,-73.96560668945312
123579813,A2,CS/SSC/SSM permit,3/1/2021,1041364,MANHATTAN,108,750 PARK AVENUE,1,40.77098083496094,-73.96430969238281
123751911,A2,CS/SSC/SSM permit,7/1/2021,1041681,MANHATTAN,108,23 EAST 74TH STREET,1,40.773460388183594,-73.96472930908203
122620422,A1,CS/SSC/SSM permit,10/9/2020,1041687,MANHATTAN,108,9 EAST 75TH STREET,1,40.77421951293945,-73.9645767211914
123405458,A2,CS/SSC/SSM permit,1/31/2021,1041695,MANHATTAN,108,35 EAST 75TH STREET,1,40.77381896972656,-73.96353149414062
122433768,A2,CS/SSC/SSM permit,11/11/2020,1041797,MANHATTAN,108,35 EAST 76TH STREET,1,40.77437973022461,-73.9629898071289
123737830,A2,CS/SSC/SSM permit,1/29/2021,1041842,MANHATTAN,108,16 EAST 78TH STREET,1,40.77573013305664,-73.96343231201172
123790692,A2,CS/SSC/SSM permit,9/20/2020,1041874,MANHATTAN,108,888 PARK AVENUE,1,40.77534103393555,-73.9613265991211
122620235,A1,CS/SSC/SSM permit,4/1/2021,1041875,MANHATTAN,108,890 PARK AVENUE,1,40.775428771972656,-73.96105194091797
122396308,A1,CS/SSC/SSM permit,1/31/2021,1042018,MANHATTAN,108,152 E 62 ST,1,40.76353073120117,-73.9660415649414
122474991,A2,CS/SSC/SSM permit,11/30/2020,1042018,MANHATTAN,108,152 E 62 ST,1,40.76353073120117,-73.9660415649414
122605270,A1,CS/SSC/SSM permit,11/1/2020,1042046,MANHATTAN,108,163 EAST 62 STREET,1,40.76390075683594,-73.96575164794922
123758004,A1,CS/SSC/SSM permit,11/1/2020,1042065,MANHATTAN,108,161 EAST 62ND STREET,1,40.763938903808594,-73.96585845947266
123742325,A2,CS/SSC/SSM permit,6/24/2021,1042094,MANHATTAN,108,143 EAST 63RD STREET,1,40.764739990234375,-73.96578216552734
123131397,A1,CS/SSC/SSM permit,1/31/2021,1042122,MANHATTAN,108,118 EAST 64TH STREET,1,40.76552963256836,-73.96690368652344
123742334,A2,CS/SSC/SSM permit,6/24/2021,1042125,MANHATTAN,108,141 EAST 63RD STREET,1,40.76475143432617,-73.9658203125
123451442,A1,CS/SSC/SSM permit,6/24/2021,1042125,MANHATTAN,108,141 EAST 63RD STREET,1,40.76475143432617,-73.9658203125
122403247,A1,CS/SSC/SSM permit,10/24/2020,1042350,MANHATTAN,108,117 EAST 64TH STREET,1,40.76593017578125,-73.96666717529297
123499348,A2,CS/SSC/SSM permit,1/30/2021,1042369,MANHATTAN,108,160 EAST 65TH STREET,1,40.76512908935547,-73.96439361572266
123476452,A1,CS/SSC/SSM permit,4/21/2021,1042373,MANHATTAN,108,146 EAST 65 STREET,1,40.76544952392578,-73.96478271484375
122957504,A2,CS/SSC/SSM permit,11/9/2020,1042391,MANHATTAN,108,605 PARK AVENUE,1,40.76628875732422,-73.96675872802734
123706007,A2,CS/SSC/SSM permit,1/31/2021,1042448,MANHATTAN,108,635 PARK AVENUE,1,40.766990661621094,-73.96637725830078
123701137,A2,CS/SSC/SSM permit,1/1/2021,1042497,MANHATTAN,108,169 EAST 69TH STREET,1,40.768131256103516,-73.9621810913086
123184963,A1,CS/SSC/SSM permit,3/17/2021,1042526,MANHATTAN,108,160 EAST 70TH STREET,1,40.76866912841797,-73.96270751953125
121189178,A1,CS/SSC/SSM permit,11/26/2020,1042753,MANHATTAN,108,132 EAST 71ST STREET,1,40.76972961425781,-73.9632568359375
123032912,A2,CS/SSC/SSM permit,8/14/2020,1042760,MANHATTAN,108,733 PARK AVE,1,40.77008819580078,-73.96412658691406
122831935,A1,CS/SSC/SSM permit,1/1/2021,1042766,MANHATTAN,108,152 EAST 71ST STREET,1,40.76934051513672,-73.96234893798828
123489242,A2,CS/SSC/SSM permit,12/18/2020,1042771,MANHATTAN,108,110 EAST 71 STREET,1,40.769989013671875,-73.96389770507812
121810139,A1,CS/SSC/SSM permit,1/31/2021,1042804,MANHATTAN,108,127 EAST 71ST STREET,1,40.77016067504883,-73.9631118774414
123506385,A2,CS/SSC/SSM permit,5/14/2021,1042823,MANHATTAN,108,160 EAST 72ND STREET,1,40.769989013671875,-73.96192932128906
122656367,A1,CS/SSC/SSM permit,11/13/2020,1042854,MANHATTAN,108,172 EAST 73RD STREET,1,40.77054977416992,-73.96099853515625
121330327,A1,CS/SSC/SSM permit,9/22/2020,1043061,MANHATTAN,108,134 EAST 74TH STREET,1,40.7717399597168,-73.96170806884766
101117435,A1,CS/SSC/SSM permit,9/26/2020,1043083,MANHATTAN,108,161 EAST   74 STREET,1,40.77164077758789,-73.9604263305664
123753991,A2,CS/SSC/SSM permit,3/25/2021,1043149,MANHATTAN,108,177 EAST 75TH STREET,1,40.772029876708984,-73.95938873291016
123374767,A1,CS/SSC/SSM permit,10/11/2020,1043211,MANHATTAN,108,138 EAST 78TH STREET,1,40.7741584777832,-73.95970916748047
123069909,A1,CS/SSC/SSM permit,4/1/2021,1043223,MANHATTAN,108,1105 LEXINGTON AVENUE,1,40.773738861083984,-73.95950317382812
120667251,A1,CS/SSC/SSM permit,10/27/2020,1043228,MANHATTAN,108,116 EAST 78TH STREET,1,40.774410247802734,-73.96031188964844
122515778,A1,CS/SSC/SSM permit,9/30/2020,1043237,MANHATTAN,108,125 EAST 78TH STREET,1,40.77463150024414,-73.95966339111328
122976878,A2,CS/SSC/SSM permit,9/30/2020,1043237,MANHATTAN,108,125 EAST 78TH STREET,1,40.77463150024414,-73.95966339111328
123898915,A2,CS/SSC/SSM permit,12/18/2020,1043254,MANHATTAN,108,156 EAST 79TH STREET,1,40.77450942993164,-73.95857238769531
123507963,A2,CS/SSC/SSM permit,9/30/2020,1043547,MANHATTAN,108,200 EAST 61 STREET,1,40.76237106323242,-73.96559143066406
121187599,NB,CS/SSC/SSM permit,6/1/2021,1043853,MANHATTAN,108,1059 THIRD AVENUE,1,40.763671875,-73.9646224975586
123689687,A2,CS/SSC/SSM permit,11/2/2020,1043864,MANHATTAN,108,245 EAST 63RD STREET,1,40.76359939575195,-73.9627685546875
123441846,A2,CS/SSC/SSM permit,11/30/2020,1043866,MANHATTAN,108,200 EAST 64TH STREET,1,40.764339447021484,-73.96408081054688
123705641,A2,CS/SSC/SSM permit,4/1/2021,1043896,MANHATTAN,108,210 EAST 68TH STREET,1,40.766788482666016,-73.96212768554688
123551995,A2,CS/SSC/SSM permit,11/30/2020,1043955,MANHATTAN,108,200 EAST 72ND STREET,1,40.76932144165039,-73.9604263305664
123752322,DM,CS/SSC/SSM permit,9/20/2020,1043958,MANHATTAN,108,257 EAST 71ST STREET,1,40.76850128173828,-73.95916748046875
123482613,A2,CS/SSC/SSM permit,11/30/2020,1043972,MANHATTAN,108,245 EAST 72 STREET,1,40.76927185058594,-73.958740234375
123383409,A1,CS/SSC/SSM permit,3/20/2021,1044018,MANHATTAN,108,236 EAST 74TH ST,1,40.77029037475586,-73.95841217041016
123548624,DM,CS/SSC/SSM permit,4/3/2021,1044043,MANHATTAN,108,204 EAST 75TH STREET,1,40.77130126953125,-73.95883178710938
123311362,DM,CS/SSC/SSM permit,10/28/2020,1044093,MANHATTAN,108,1339 3RD AVENUE,1,40.772579193115234,-73.95818328857422
123213450,A1,CS/SSC/SSM permit,1/1/2021,1044197,MANHATTAN,108,311 EAST 60TH STREET,1,40.76110076904297,-73.96299743652344
123135801,A1,CS/SSC/SSM permit,9/30/2020,1044242,MANHATTAN,108,342 EAST 62ND STREET,1,40.761688232421875,-73.9616928100586
121094706,A1,CS/SSC/SSM permit,10/31/2020,1044244,MANHATTAN,108,318 EAST 62 STREET,1,40.7619514465332,-73.9623031616211
121188981,A1,CS/SSC/SSM permit,11/30/2020,1044364,MANHATTAN,108,341 EAST 62 STREET,1,40.76206970214844,-73.9614028930664
140736434,A2,CS/SSC/SSM permit,3/17/2021,1044390,MANHATTAN,108,340 EAST 64TH STREET,1,40.762630462646484,-73.9603500366211
123891217,A2,CS/SSC/SSM permit,1/30/2021,1044753,MANHATTAN,108,315 EAST 68TH STREET,1,40.766231536865234,-73.95953369140625
140887949,A2,CS/SSC/SSM permit,6/7/2021,1044873,MANHATTAN,108,330 EAST 72ND STREET,1,40.76811981201172,-73.95748901367188
123708826,A2,CS/SSC/SSM permit,3/21/2021,1044879,MANHATTAN,108,325 EAST 72 STREET,1,40.76850128173828,-73.9569320678711
121205702,A1,CS/SSC/SSM permit,11/1/2020,1044930,MANHATTAN,108,351 EAST 74 STREET,1,40.769561767578125,-73.95549774169922
140911360,A2,CS/SSC/SSM permit,7/15/2021,1045148,MANHATTAN,108,370 EAST 76 STREET,1,40.770328521728516,-73.95478820800781
123205183,A2,CS/SSC/SSM permit,11/30/2020,1045173,MANHATTAN,108,355 EAST 76 STREET,1,40.770931243896484,-73.95480346679688
123411897,A2,CS/SSC/SSM permit,1/1/2021,1045185,MANHATTAN,108,324 EAST 77 STREET,1,40.77141189575195,-73.95516967773438
123693921,A2,CS/SSC/SSM permit,10/28/2020,1045286,MANHATTAN,108,440 EAST 62 STREET,1,40.76047897338867,-73.95881652832031
123824629,A2,CS/SSC/SSM permit,3/1/2021,1045808,MANHATTAN,108,400 EAST 71ST STREET,1,40.766639709472656,-73.95626068115234
123176491,A2,CS/SSC/SSM permit,5/14/2021,1045891,MANHATTAN,108,401 EAST 74TH STREET,1,40.76919937133789,-73.95448303222656
120186173,A1,CS/SSC/SSM permit,10/11/2020,1046015,MANHATTAN,108,405 EAST 78 STREET,1,40.77159881591797,-73.95247650146484
122760654,NB,CS/SSC/SSM permit,4/1/2021,1046294,MANHATTAN,108,1402 YORK AVENUE,3,40.76832962036133,-73.95226287841797
103652469,A2,CS/SSC/SSM permit,1/21/2021,1046411,MANHATTAN,108,1458 YORK AVENUE,1,40.77021026611328,-73.95075225830078
121190852,NB,CS/SSC/SSM permit,1/8/2021,1046433,MANHATTAN,108,27 EAST 79TH STREET,1,40.776710510253906,-73.96234893798828
123901242,A1,CS/SSC/SSM permit,11/7/2020,1046449,MANHATTAN,108,54 EAST 80TH STREET,1,40.77653121948242,-73.96111297607422
121188366,NB,CS/SSC/SSM permit,7/29/2021,1046469,MANHATTAN,108,1045 MADISON AVENUE,3,40.77655029296875,-73.96163940429688
122458072,A1,CS/SSC/SSM permit,1/29/2021,1046623,MANHATTAN,108,59 EAST 80TH STREET,1,40.776851654052734,-73.9606704711914
140903100,A2,CS/SSC/SSM permit,1/1/2021,1046650,MANHATTAN,108,995 5TH AVE,1,40.77799987792969,-73.9625473022461
123435933,A2,CS/SSC/SSM permit,12/29/2020,1046650,MANHATTAN,108,995 5TH AVE,1,40.77799987792969,-73.9625473022461
123081066,A1,CS/SSC/SSM permit,12/13/2020,1046654,MANHATTAN,108,63 EAST 80TH STREET,1,40.776790618896484,-73.96056365966797
